{"cameras": [{"name": "Tassajara_Peak", "id": 2438, "lat": "35.393814", "lon": "-120.708572"}, {"name": "West_Gonzales_1", "id": 2488, "lat": "36.455002", "lon": "-121.482002"}, {"name": "Cow_Mtn_1", "id": 1636, "lat": "39.130699", "lon": "-123.076797"}, {"name": "Rosamond_2", "id": 2331, "lat": "34.880596", "lon": "-118.162430"}, {"name": "Yosemite_West_1", "id": 2520, "lat": "37.657021", "lon": "-119.772530"}, {"name": "Banner_Mtn_1", "id": 1613, "lat": "39.245602", "lon": "-120.965599"}, {"name": "Pierce_Mtn_2", "id": 2251, "lat": "40.417099", "lon": "-124.120468"}, {"name": "Anaheim_Deer_Canyon_2", "id": 1787, "lat": "33.857800", "lon": "-117.806702"}, {"name": "Quartzite_Mtn_2", "id": 2285, "lat": "34.611366", "lon": "-117.290405"}, {"name": "Dry_Creek_2", "id": 1944, "lat": "38.365799", "lon": "-122.389198"}, {"name": "Rancho_La_Habra_2", "id": 2293, "lat": "33.973301", "lon": "-117.942902"}, {"name": "Lyons_Peak_2", "id": 2094, "lat": "32.701534", "lon": "-116.764572"}, {"name": "Tehachapi_Obsv_2", "id": 2442, "lat": "35.045982", "lon": "-118.461143"}, {"name": "Ranger_Peak_2", "id": 2295, "lat": "33.842167", "lon": "-116.824135"}, {"name": "Toro_Peak_2", "id": 2460, "lat": "33.523510", "lon": "-116.425690"}, {"name": "South_Forks_Lookout_1", "id": 2407, "lat": "40.651585", "lon": "-122.526321"}, {"name": "Flea_Mtn_2", "id": 1776, "lat": "39.829201", "lon": "-121.471603"}, {"name": "Upper_Lake_2", "id": 2542, "lat": "39.172783", "lon": "-122.928429"}, {"name": "Dollar_Point", "id": 1942, "lat": "39.207699", "lon": "-120.126022"}, {"name": "Eighmy", "id": 1644, "lat": "40.353382", "lon": "-122.367737"}, {"name": "Snag_Hill_1", "id": 2610, "lat": "40.970244", "lon": "-121.011975"}, {"name": "Mt_Elizabeth_2", "id": 2160, "lat": "38.063023", "lon": "-120.247307"}, {"name": "Beckwourth_Peak_2", "id": 1617, "lat": "39.768833", "lon": "-120.436729"}, {"name": "Red_Corral_Rd_1", "id": 2300, "lat": "38.412952", "lon": "-120.595154"}, {"name": "Volcan_Tract_III_North", "id": 2480, "lat": "33.138256", "lon": "-116.617058"}, {"name": "Edith_Hill_2", "id": 1954, "lat": "37.747513", "lon": "-120.120667"}, {"name": "Silver_Peak_2", "id": 2390, "lat": "37.412113", "lon": "-118.188705"}, {"name": "Duckwall_2", "id": 1946, "lat": "37.968700", "lon": "-120.119797"}, {"name": "Black_Mtn_Marin", "id": 1833, "lat": "38.082298", "lon": "-122.766800"}, {"name": "Yosemite_Lakes", "id": 2519, "lat": "37.807301", "lon": "-119.941498"}, {"name": "Shoeinhorse_Mtn_2", "id": 2702, "lat": "41.068342", "lon": "-122.073138"}, {"name": "Atascadero_HWY41_1", "id": 1793, "lat": "35.454735", "lon": "-120.746254"}, {"name": "Bear_Mtn_South", "id": 1817, "lat": "34.212601", "lon": "-116.866302"}, {"name": "Lopez_Hill", "id": 2085, "lat": "35.178780", "lon": "-120.489334"}, {"name": "Sawmill_Lookout_2", "id": 1718, "lat": "39.811901", "lon": "-121.558800"}, {"name": "Sweeney_Ridge", "id": 2430, "lat": "37.608898", "lon": "-122.457451"}, {"name": "Sage_Hen", "id": 2340, "lat": "39.426414", "lon": "-120.311867"}, {"name": "Los_Pinos_South", "id": 2087, "lat": "32.734673", "lon": "-116.577751"}, {"name": "Cherry_Lake_Rd", "id": 1892, "lat": "37.851631", "lon": "-120.006859"}, {"name": "Meadowbrook_1", "id": 2111, "lat": "38.859600", "lon": "-120.821899"}, {"name": "Rock_Creek", "id": 2320, "lat": "38.796543", "lon": "-120.742035"}, {"name": "Cummings_Mtn_1", "id": 1921, "lat": "35.041489", "lon": "-118.570206"}, {"name": "Buffalo_Bump_South", "id": 2540, "lat": "33.428371", "lon": "-117.382530"}, {"name": "Willis_Peak_2", "id": 2512, "lat": "34.302471", "lon": "-119.230728"}, {"name": "Telegraph_Hill_1", "id": 2444, "lat": "38.030800", "lon": "-120.351799"}, {"name": "Higgins_Canyon", "id": 2019, "lat": "37.453449", "lon": "-122.375458"}, {"name": "Nichol_Knob", "id": 2208, "lat": "37.920311", "lon": "-122.382057"}, {"name": "Fish_Rock_1", "id": 1973, "lat": "38.821884", "lon": "-123.583534"}, {"name": "Thunder_Valley_Casino_East", "id": 1740, "lat": "38.840244", "lon": "-121.314133"}, {"name": "Big_Rock_Ridge", "id": 1829, "lat": "38.059288", "lon": "-122.604385"}, {"name": "Stover_Mtn", "id": 2588, "lat": "40.280546", "lon": "-121.302783"}, {"name": "Pinyon_Peak_2", "id": 2260, "lat": "36.489601", "lon": "-121.786598"}, {"name": "Sierra_at_Tahoe", "id": 2380, "lat": "38.795753", "lon": "-120.062912"}, {"name": "Kregor_Peak", "id": 2054, "lat": "37.943020", "lon": "-121.891121"}, {"name": "Grapevine_1", "id": 1991, "lat": "34.903049", "lon": "-118.904259"}, {"name": "Santa_Rita_Quarry_2", "id": 2363, "lat": "35.509750", "lon": "-120.811821"}, {"name": "Shirley_Peak_1", "id": 2378, "lat": "35.705730", "lon": "-118.559547"}, {"name": "Sunset_Peak_1", "id": 2426, "lat": "34.187599", "lon": "-117.700302"}, {"name": "Mesa_Grande_South", "id": 2119, "lat": "33.188869", "lon": "-116.760651"}, {"name": "Jackson_Butte_1", "id": 2037, "lat": "38.340000", "lon": "-120.721298"}, {"name": "Orcutt_2", "id": 2226, "lat": "34.865398", "lon": "-120.505302"}, {"name": "Sulphur_Mtn_Willet_2", "id": 2425, "lat": "34.412621", "lon": "-119.187973"}, {"name": "Bell_Canyon_South", "id": 1822, "lat": "33.612446", "lon": "-117.548645"}, {"name": "Rodeo_Valley", "id": 2534, "lat": "39.657830", "lon": "-123.331809"}, {"name": "Panoche_Mtn_2", "id": 2676, "lat": "36.725592", "lon": "-120.764717"}, {"name": "Strawberry_1", "id": 2418, "lat": "38.196499", "lon": "-120.032402"}, {"name": "Grizzly_Peak_2", "id": 1657, "lat": "38.970692", "lon": "-123.279488"}, {"name": "Brookdale", "id": 1859, "lat": "37.113949", "lon": "-122.104172"}, {"name": "Duckwall_1", "id": 1945, "lat": "37.968700", "lon": "-120.119797"}, {"name": "Figueroa_1", "id": 1971, "lat": "34.728249", "lon": "-119.991867"}, {"name": "Banner_Mtn_2", "id": 1614, "lat": "39.245602", "lon": "-120.965599"}, {"name": "Johnstone_Peak_2", "id": 2042, "lat": "34.154583", "lon": "-117.801003"}, {"name": "Timber_Mtn_1", "id": 2652, "lat": "41.629456", "lon": "-121.298983"}, {"name": "Sears_Point", "id": 2375, "lat": "38.160400", "lon": "-122.463585"}, {"name": "Mt_Bradley_2", "id": 1687, "lat": "41.221874", "lon": "-122.308662"}, {"name": "Platte_Mtn_2", "id": 1700, "lat": "39.935921", "lon": "-121.647499"}, {"name": "Pelato_Peak_East", "id": 2245, "lat": "34.919968", "lon": "-119.405243"}, {"name": "Whipple_Ridge", "id": 2497, "lat": "39.094398", "lon": "-123.446098"}, {"name": "Talega_North_upper", "id": 2436, "lat": "33.519154", "lon": "-117.480949"}, {"name": "Avalon_Catalina_1", "id": 1797, "lat": "33.339062", "lon": "-118.318413"}, {"name": "Moraga_Alta_Mesa", "id": 2139, "lat": "37.835899", "lon": "-122.117897"}, {"name": "Deadwood_Mtn_2", "id": 1932, "lat": "37.314125", "lon": "-119.686455"}, {"name": "Ponderosa", "id": 2268, "lat": "37.824326", "lon": "-120.183594"}, {"name": "Ruby_Bluff_2", "id": 1712, "lat": "39.511467", "lon": "-120.844894"}, {"name": "Cold_Springs_Mtn", "id": 1898, "lat": "39.022499", "lon": "-123.522697"}, {"name": "Miami_Peak_1", "id": 2121, "lat": "37.419273", "lon": "-119.745659"}, {"name": "Hornbrook_1", "id": 1765, "lat": "41.929877", "lon": "-122.557403"}, {"name": "Matilija_1", "id": 2103, "lat": "34.483547", "lon": "-119.299683"}, {"name": "Winters_2", "id": 2517, "lat": "38.521198", "lon": "-121.983101"}, {"name": "Elsinore_Peak_2", "id": 1960, "lat": "33.601898", "lon": "-117.343903"}, {"name": "Shasta_Lake_2", "id": 1683, "lat": "40.657211", "lon": "-122.414551"}, {"name": "Joaquin_Ridge", "id": 2040, "lat": "36.300480", "lon": "-120.400558"}, {"name": "Signal_Peak_NVCO_8_Thermal", "id": 2705, "lat": "39.338840", "lon": "-120.535828"}, {"name": "Wild_Horse_Valley_1", "id": 2505, "lat": "38.344898", "lon": "-122.203003"}, {"name": "Pleasants_West_2", "id": 2264, "lat": "33.797199", "lon": "-117.623802"}, {"name": "Arcadia_2", "id": 1789, "lat": "34.179638", "lon": "-118.025688"}, {"name": "Howell_Mtn_1", "id": 1679, "lat": "39.067150", "lon": "-120.972473"}, {"name": "Mt_San_Miguel_North", "id": 2190, "lat": "32.696804", "lon": "-116.936363"}, {"name": "Upper_Bear", "id": 2471, "lat": "38.116901", "lon": "-120.725197"}, {"name": "Quail_Ridge_1", "id": 1702, "lat": "39.952881", "lon": "-120.942520"}, {"name": "Mt_Rodoni_1", "id": 2188, "lat": "37.218102", "lon": "-122.032600"}, {"name": "Rocky_Butte_Trail_1", "id": 2323, "lat": "35.670040", "lon": "-121.045853"}, {"name": "Lower_Mt_Veeder_1", "id": 2090, "lat": "38.338100", "lon": "-122.362503"}, {"name": "Barnabe_Peak_East", "id": 1809, "lat": "38.026779", "lon": "-122.716362"}, {"name": "Milias_Ranch_1", "id": 2658, "lat": "37.048428", "lon": "-121.487860"}, {"name": "Westridge_1", "id": 2493, "lat": "34.086666", "lon": "-118.510620"}, {"name": "Henrietta_Peak_1", "id": 2015, "lat": "36.903400", "lon": "-121.230103"}, {"name": "Marzano_Peak_1", "id": 2101, "lat": "37.205269", "lon": "-118.107498"}, {"name": "Mt_Tamalpais_East", "id": 2192, "lat": "37.927662", "lon": "-122.578384"}, {"name": "Canyonback_Trail_TCM_1", "id": 1875, "lat": "34.098499", "lon": "-118.497704"}, {"name": "Eagle_Rock_Lookout_2", "id": 1950, "lat": "37.147499", "lon": "-122.195198"}, {"name": "Mojave_Admin_1", "id": 2133, "lat": "35.046242", "lon": "-118.162468"}, {"name": "Blue_Canyon", "id": 1620, "lat": "39.255951", "lon": "-120.721222"}, {"name": "Little_Mountain_1", "id": 2078, "lat": "34.159000", "lon": "-117.315002"}, {"name": "UCSB_Campus", "id": 2470, "lat": "34.415668", "lon": "-119.845253"}, {"name": "Bird_Springs_2", "id": 1832, "lat": "35.536343", "lon": "-118.140518"}, {"name": "Crestline_Ridge_2", "id": 1912, "lat": "34.236500", "lon": "-117.314201"}, {"name": "Radio_Hill_1", "id": 1704, "lat": "39.940388", "lon": "-120.928932"}, {"name": "Martis_Peak", "id": 2100, "lat": "39.292000", "lon": "-120.036003"}, {"name": "McCabe_Ridge_1", "id": 2105, "lat": "40.694916", "lon": "-122.655365"}, {"name": "Cowles_Mtn", "id": 1908, "lat": "32.813686", "lon": "-117.032364"}, {"name": "Hollywood_1", "id": 2027, "lat": "34.108727", "lon": "-118.380646"}, {"name": "Oat_Mtn_South_1", "id": 2219, "lat": "34.324100", "lon": "-118.584801"}, {"name": "Rasnow_Peak_1", "id": 2296, "lat": "34.165298", "lon": "-118.908997"}, {"name": "Mtn_High_East_1", "id": 2200, "lat": "34.358002", "lon": "-117.682297"}, {"name": "Southworth", "id": 2409, "lat": "38.147942", "lon": "-120.924828"}, {"name": "Red_Top", "id": 2663, "lat": "37.128427", "lon": "-119.779031"}, {"name": "Mt_Zion_2", "id": 2199, "lat": "38.389950", "lon": "-120.652336"}, {"name": "Ctry_Club_Hts_Carmel_2", "id": 1919, "lat": "36.506275", "lon": "-121.718887"}, {"name": "PCWA_Auburn", "id": 2695, "lat": "38.922424", "lon": "-121.053560"}, {"name": "Red_Mtn_Del_Norte_2", "id": 2305, "lat": "41.524025", "lon": "-123.908569"}, {"name": "Cow_Mtn_2", "id": 1637, "lat": "39.130699", "lon": "-123.076797"}, {"name": "Gibraltar_2", "id": 1986, "lat": "34.465286", "lon": "-119.678314"}, {"name": "Flea_Mtn_1", "id": 1006, "lat": "39.829201", "lon": "-121.471603"}, {"name": "Wiedemann_Hill", "id": 2502, "lat": "37.738091", "lon": "-121.994751"}, {"name": "Oat_Mtn_North_2", "id": 2218, "lat": "34.324558", "lon": "-118.584251"}, {"name": "Cohasset_Hill_1", "id": 1896, "lat": "39.958332", "lon": "-121.714600"}, {"name": "Sunset_Peak_2", "id": 2427, "lat": "34.187599", "lon": "-117.700302"}, {"name": "Deer_Park_West", "id": 2599, "lat": "38.546180", "lon": "-122.454876"}, {"name": "Mt_Helen_2", "id": 2171, "lat": "36.543568", "lon": "-121.118851"}, {"name": "Fontana_1", "id": 1976, "lat": "34.174969", "lon": "-117.471481"}, {"name": "Whitaker_Middle_Peak_1", "id": 2601, "lat": "34.569444", "lon": "-118.740117"}, {"name": "Golden_Gate", "id": 1988, "lat": "38.248600", "lon": "-120.747299"}, {"name": "Olancha_1", "id": 2221, "lat": "36.272499", "lon": "-118.007256"}, {"name": "Laguna_Peak_1", "id": 2064, "lat": "34.115898", "lon": "-119.051300"}, {"name": "Cross_Oakview_2", "id": 1916, "lat": "34.413025", "lon": "-119.311188"}, {"name": "Yosemite_West_2", "id": 2521, "lat": "37.657021", "lon": "-119.772530"}, {"name": "Wolfback_Ridge", "id": 2518, "lat": "37.851002", "lon": "-122.498299"}, {"name": "Mt_Frazier_1", "id": 2163, "lat": "34.774712", "lon": "-118.968918"}, {"name": "Heaps_Peak_2", "id": 2012, "lat": "34.234825", "lon": "-117.140511"}, {"name": "Plowshare_Peak", "id": 2265, "lat": "35.050068", "lon": "-120.041016"}, {"name": "Hanging_Tree_2", "id": 2006, "lat": "35.573570", "lon": "-120.666908"}, {"name": "Mt_Hamilton_SCC_1", "id": 2165, "lat": "37.341301", "lon": "-121.642899"}, {"name": "Leek_Springs", "id": 2076, "lat": "38.629002", "lon": "-120.277000"}, {"name": "San_Timoteo_2", "id": 2358, "lat": "34.030373", "lon": "-117.220894"}, {"name": "Poplar_Lane", "id": 1701, "lat": "39.433624", "lon": "-121.003593"}, {"name": "Snow_Summit_West", "id": 2402, "lat": "34.222801", "lon": "-116.894699"}, {"name": "Mt_Lewis_Tuolumne_1", "id": 2178, "lat": "38.035301", "lon": "-120.161903"}, {"name": "Montebello_Preserve", "id": 2136, "lat": "37.324726", "lon": "-122.167801"}, {"name": "Sonora_Peak_East", "id": 2405, "lat": "37.979900", "lon": "-120.402901"}, {"name": "Lake_Wohlford_2", "id": 2655, "lat": "33.174690", "lon": "-117.004410"}, {"name": "East_Quincy", "id": 1643, "lat": "39.912891", "lon": "-120.887642"}, {"name": "Cisco_Buttes_1", "id": 1628, "lat": "39.305775", "lon": "-120.562813"}, {"name": "Yankee_Hill", "id": 1727, "lat": "39.718899", "lon": "-121.526482"}, {"name": "Saint_John_Mtn_1", "id": 1731, "lat": "39.433952", "lon": "-122.693298"}, {"name": "Blue_Ridge_1", "id": 1840, "lat": "36.286610", "lon": "-118.839729"}, {"name": "Cohasset_Hill_2", "id": 1897, "lat": "39.958332", "lon": "-121.714600"}, {"name": "Pine_Mtn_Kern_2", "id": 2257, "lat": "35.561169", "lon": "-118.771759"}, {"name": "Constantia", "id": 1635, "lat": "39.922802", "lon": "-120.003372"}, {"name": "Magic_Mountain_1", "id": 2096, "lat": "34.386234", "lon": "-118.329315"}, {"name": "Templeton_2", "id": 2449, "lat": "35.566898", "lon": "-120.819298"}, {"name": "Mt_Diablo_West", "id": 2158, "lat": "37.881699", "lon": "-121.919083"}, {"name": "Boonville_Mtn_2", "id": 1762, "lat": "38.977020", "lon": "-123.357391"}, {"name": "Mt_Adelaide_1", "id": 2144, "lat": "35.429768", "lon": "-118.749718"}, {"name": "Mail_Ridge_Satterlee_2", "id": 2099, "lat": "40.202602", "lon": "-123.708305"}, {"name": "Sunset_Hill_2", "id": 1737, "lat": "39.523724", "lon": "-121.300308"}, {"name": "Crest_1", "id": 1909, "lat": "32.804600", "lon": "-116.876999"}, {"name": "Gorman_1", "id": 1989, "lat": "34.803822", "lon": "-118.815796"}, {"name": "Inskip_Hill_2", "id": 2691, "lat": "40.346111", "lon": "-121.945000"}, {"name": "Bear_Peak_North", "id": 1818, "lat": "34.210300", "lon": "-116.850700"}, {"name": "Bear_Mtn_Fresno_1", "id": 1814, "lat": "36.746307", "lon": "-119.280029"}, {"name": "Mt_Konocti", "id": 2173, "lat": "38.975368", "lon": "-122.766777"}, {"name": "Strawberry_Peak_Arrowhead_2", "id": 2421, "lat": "34.232227", "lon": "-117.235001"}, {"name": "Moccasin_Peak_1", "id": 2129, "lat": "37.805199", "lon": "-120.328102"}, {"name": "Penman_Peak_1", "id": 1696, "lat": "39.800545", "lon": "-120.618103"}, {"name": "Berkeley_Downtown", "id": 1825, "lat": "37.870701", "lon": "-122.268501"}, {"name": "Green_Peak_South_2", "id": 1997, "lat": "34.086380", "lon": "-118.548820"}, {"name": "Pecwan_2", "id": 2244, "lat": "41.320999", "lon": "-123.883797"}, {"name": "Schill_Hill_2", "id": 2374, "lat": "35.635582", "lon": "-118.806786"}, {"name": "Upper_Meyers_Grade_1", "id": 2472, "lat": "38.525173", "lon": "-123.202797"}, {"name": "Tuscan_Butte_1", "id": 2462, "lat": "40.258400", "lon": "-122.090103"}, {"name": "San_Juan_Hills_South", "id": 2350, "lat": "33.502922", "lon": "-117.603149"}, {"name": "Moonraker", "id": 2138, "lat": "38.682659", "lon": "-123.415115"}, {"name": "Pine_Mtn_Kern_1", "id": 2256, "lat": "35.561169", "lon": "-118.771759"}, {"name": "San_Jose_Foothills", "id": 2348, "lat": "37.352745", "lon": "-121.770378"}, {"name": "Buffalo_Bump_North", "id": 2539, "lat": "33.428371", "lon": "-117.382530"}, {"name": "Saddleback_Lookout_2", "id": 1713, "lat": "39.636600", "lon": "-120.864403"}, {"name": "Big_Hill", "id": 1828, "lat": "38.842541", "lon": "-120.407784"}, {"name": "Signal_Peak_NVCO_1", "id": 1722, "lat": "39.338840", "lon": "-120.535828"}, {"name": "Holiday_Lake_1", "id": 2025, "lat": "37.151501", "lon": "-121.609901"}, {"name": "Mt_Lewis_Tuolumne_2", "id": 2179, "lat": "38.035301", "lon": "-120.161903"}, {"name": "California_Valley_2", "id": 1871, "lat": "35.270920", "lon": "-119.989380"}, {"name": "Mt_Madonna", "id": 2183, "lat": "37.057770", "lon": "-121.776390"}, {"name": "Whitaker_Ridge_1", "id": 2603, "lat": "34.583952", "lon": "-118.721520"}, {"name": "San_Clemente_North", "id": 2346, "lat": "33.431427", "lon": "-117.597389"}, {"name": "Bloomer_Lookout_2", "id": 1619, "lat": "39.651001", "lon": "-121.463402"}, {"name": "Prunedale_1", "id": 2279, "lat": "36.813461", "lon": "-121.679077"}, {"name": "Grizzly_Peak_KPFA", "id": 2000, "lat": "37.865196", "lon": "-122.221001"}, {"name": "Shingletown", "id": 1745, "lat": "40.469555", "lon": "-121.878784"}, {"name": "Fontana_2", "id": 1977, "lat": "34.174969", "lon": "-117.471481"}, {"name": "Volcan_South", "id": 2479, "lat": "33.112896", "lon": "-116.583084"}, {"name": "PCWA_Forest_Hill", "id": 2693, "lat": "39.018964", "lon": "-120.811758"}, {"name": "Pole_Mtn_Lookout_2", "id": 2267, "lat": "38.505402", "lon": "-123.120003"}, {"name": "Mt_Burdell_South", "id": 2668, "lat": "38.145003", "lon": "-122.594031"}, {"name": "Fort_Jones_1", "id": 1650, "lat": "41.595783", "lon": "-122.877403"}, {"name": "Oat_Mtn_South_2", "id": 2220, "lat": "34.324100", "lon": "-118.584801"}, {"name": "Rocky_Point_1", "id": 2327, "lat": "35.686901", "lon": "-118.420700"}, {"name": "Winters_1", "id": 2516, "lat": "38.521198", "lon": "-121.983101"}, {"name": "Pierce_Mtn_1", "id": 2250, "lat": "40.417099", "lon": "-124.120468"}, {"name": "Fowler_Peak", "id": 1979, "lat": "38.020100", "lon": "-120.585197"}, {"name": "Strawberry_2", "id": 2419, "lat": "38.196499", "lon": "-120.032402"}, {"name": "Highland_Peak_1", "id": 2023, "lat": "37.814499", "lon": "-121.808327"}, {"name": "Saddle_Peak_1", "id": 2335, "lat": "34.075802", "lon": "-118.659203"}, {"name": "Hammond_Ranch_2", "id": 2529, "lat": "41.373402", "lon": "-122.451447"}, {"name": "Bear_Mtn_Shasta_1", "id": 1616, "lat": "40.719906", "lon": "-122.268158"}, {"name": "Duncan_Ranch_1", "id": 1947, "lat": "35.777916", "lon": "-120.179970"}, {"name": "Chalk_Mtn_Lookout", "id": 1891, "lat": "37.160137", "lon": "-122.303497"}, {"name": "Seigler_Mtn_1", "id": 1750, "lat": "38.873997", "lon": "-122.709686"}, {"name": "Mt_Provo", "id": 2185, "lat": "38.016899", "lon": "-120.232002"}, {"name": "Mt_Ararat_1", "id": 2696, "lat": "38.853045", "lon": "-120.940079"}, {"name": "Mt_Tamalpais_West", "id": 2193, "lat": "37.927662", "lon": "-122.578384"}, {"name": "Presson_Hill_1", "id": 2277, "lat": "37.166565", "lon": "-121.926453"}, {"name": "Antelope_Mtn_Yreka_2", "id": 1607, "lat": "41.610207", "lon": "-122.624847"}, {"name": "Black_Mtn_SLO", "id": 1836, "lat": "35.392548", "lon": "-120.352089"}, {"name": "Sunol_Ridge", "id": 2600, "lat": "37.620219", "lon": "-121.922154"}, {"name": "Kelseyville_2", "id": 2047, "lat": "38.973583", "lon": "-122.770859"}, {"name": "Wilshire_1", "id": 2514, "lat": "34.016869", "lon": "-118.500473"}, {"name": "Lone_Pine_2", "id": 2084, "lat": "36.606548", "lon": "-118.058128"}, {"name": "Meyers", "id": 2120, "lat": "38.514301", "lon": "-123.196999"}, {"name": "Silver_Peak_1", "id": 2389, "lat": "37.412113", "lon": "-118.188705"}, {"name": "Devils_Garden_2", "id": 1940, "lat": "41.499073", "lon": "-120.622818"}, {"name": "Orcutt_1", "id": 2225, "lat": "34.865398", "lon": "-120.505302"}, {"name": "Mt_Bielawski", "id": 2150, "lat": "37.222698", "lon": "-122.093903"}, {"name": "Ranger_Peak_1", "id": 2294, "lat": "33.842167", "lon": "-116.824135"}, {"name": "Laguna_Peak_2", "id": 2065, "lat": "34.115898", "lon": "-119.051300"}, {"name": "Ballard_Ridge_2", "id": 2645, "lat": "41.363000", "lon": "-120.839000"}, {"name": "Mt_Burdell", "id": 2153, "lat": "38.149868", "lon": "-122.593246"}, {"name": "Mt_Lukens_1", "id": 2181, "lat": "34.268692", "lon": "-118.236908"}, {"name": "Mtn_High_West_2", "id": 2205, "lat": "34.367401", "lon": "-117.691704"}, {"name": "Atascadero_HWY41_2", "id": 1794, "lat": "35.454735", "lon": "-120.746254"}, {"name": "Tobias_Peak_2", "id": 2454, "lat": "35.850105", "lon": "-118.572571"}, {"name": "Snag_Hill_2", "id": 2611, "lat": "40.970244", "lon": "-121.011975"}, {"name": "Mission_Peak_2", "id": 2128, "lat": "37.475399", "lon": "-121.860901"}, {"name": "Allen_Peak", "id": 1784, "lat": "37.386902", "lon": "-122.294601"}, {"name": "Patton_Hill_2", "id": 2242, "lat": "40.256809", "lon": "-123.655800"}, {"name": "Pleasants_North_2", "id": 2262, "lat": "33.799000", "lon": "-117.623398"}, {"name": "Greenwood_Rd_East", "id": 1998, "lat": "39.124199", "lon": "-123.597969"}, {"name": "Chino_Hills_1", "id": 1894, "lat": "33.913837", "lon": "-117.738297"}, {"name": "Colvin_Mtn_1", "id": 1903, "lat": "36.450699", "lon": "-119.151199"}, {"name": "West_Point_CA", "id": 2492, "lat": "38.400600", "lon": "-120.526497"}, {"name": "Twin_Sisters_North_2", "id": 2467, "lat": "38.303200", "lon": "-122.168503"}, {"name": "Santiago_Peak_CalOES_N", "id": 2369, "lat": "33.711151", "lon": "-117.534103"}, {"name": "Sugarloaf_Ridge", "id": 2422, "lat": "38.264198", "lon": "-122.216599"}, {"name": "Mt_Danaher", "id": 2155, "lat": "38.744701", "lon": "-120.667603"}, {"name": "Lake_Shastina", "id": 1739, "lat": "41.507187", "lon": "-122.374420"}, {"name": "Alder_Hill", "id": 1781, "lat": "39.352402", "lon": "-120.195396"}, {"name": "Buckhorn_Peak", "id": 1862, "lat": "37.663490", "lon": "-120.123848"}, {"name": "Pleasants_West_1", "id": 2263, "lat": "33.797199", "lon": "-117.623802"}, {"name": "Bealville_2", "id": 1813, "lat": "35.256153", "lon": "-118.624619"}, {"name": "Volcanoville", "id": 2535, "lat": "38.980907", "lon": "-120.798836"}, {"name": "Bell_Canyon_North", "id": 1821, "lat": "33.612446", "lon": "-117.548645"}, {"name": "Mt_Elizabeth_1", "id": 2159, "lat": "38.063023", "lon": "-120.247307"}, {"name": "Wild_Frontier_1", "id": 2503, "lat": "41.830299", "lon": "-123.876801"}, {"name": "Red_Mtn_Glenn_2", "id": 2307, "lat": "39.742500", "lon": "-122.609604"}, {"name": "William_Rust_Summit", "id": 2508, "lat": "37.926430", "lon": "-122.290863"}, {"name": "Upper_Lake_1", "id": 2541, "lat": "39.172783", "lon": "-122.928429"}, {"name": "Coronado_Hills_N", "id": 1907, "lat": "33.110634", "lon": "-117.153061"}, {"name": "Mt_Aukum_2", "id": 2149, "lat": "38.573868", "lon": "-120.726982"}, {"name": "Skyline_College", "id": 2394, "lat": "37.628502", "lon": "-122.469704"}, {"name": "Mt_Lee_S", "id": 2177, "lat": "34.134628", "lon": "-118.320580"}, {"name": "Brain_Ridge_1", "id": 1851, "lat": "38.539921", "lon": "-123.167030"}, {"name": "Sierra_Buttes_2", "id": 1721, "lat": "39.593498", "lon": "-120.647202"}, {"name": "Mt_Sanel_2", "id": 1716, "lat": "38.948601", "lon": "-123.217400"}, {"name": "Cross_Oakview_1", "id": 1915, "lat": "34.413025", "lon": "-119.311188"}, {"name": "Fish_Rock_East", "id": 1975, "lat": "38.834000", "lon": "-123.530296"}, {"name": "Bunch_Grass_Lookout_2", "id": 1623, "lat": "40.874767", "lon": "-121.772789"}, {"name": "Osborn_Preserve", "id": 2230, "lat": "38.353607", "lon": "-122.591003"}, {"name": "Redwood_Valley_1", "id": 2310, "lat": "39.309242", "lon": "-123.180298"}, {"name": "Cameron", "id": 1874, "lat": "39.271778", "lon": "-123.553520"}, {"name": "Sawmill_Kern_1", "id": 2371, "lat": "34.839722", "lon": "-119.140663"}, {"name": "Todd_Eymann_Rd_2", "id": 2700, "lat": "36.708753", "lon": "-119.029459"}, {"name": "Whitaker_Ridge_2", "id": 2602, "lat": "34.583952", "lon": "-118.721520"}, {"name": "Shasta_Lake_1", "id": 1630, "lat": "40.657211", "lon": "-122.414551"}, {"name": "Upper_Ojai_1", "id": 2474, "lat": "34.423580", "lon": "-119.155655"}, {"name": "Shaffer_Mtn", "id": 1719, "lat": "40.446701", "lon": "-120.358002"}, {"name": "Oven_Lid_2", "id": 2526, "lat": "40.030502", "lon": "-122.793419"}, {"name": "Olancha_2", "id": 2222, "lat": "36.272499", "lon": "-118.007256"}, {"name": "Mt_Frazier_2", "id": 2164, "lat": "34.774712", "lon": "-118.968918"}, {"name": "Eagle_Rock_Lookout_1", "id": 1949, "lat": "37.147499", "lon": "-122.195198"}, {"name": "Wild_Horse_Valley_2", "id": 2506, "lat": "38.344898", "lon": "-122.203003"}, {"name": "Sycamore_Flat_1", "id": 2431, "lat": "36.296001", "lon": "-121.347000"}, {"name": "Cambria_1", "id": 2656, "lat": "35.527944", "lon": "-121.060225"}, {"name": "Barr_Ranch_1", "id": 1615, "lat": "39.281597", "lon": "-121.167557"}, {"name": "Shandon_1", "id": 2376, "lat": "35.652050", "lon": "-120.351349"}, {"name": "College_Peak_2", "id": 1902, "lat": "34.017124", "lon": "-118.014748"}, {"name": "Mt_Vaca_5", "id": 1684, "lat": "38.414600", "lon": "-122.118202"}, {"name": "Heavenly_Ski_Area_2", "id": 2014, "lat": "38.927341", "lon": "-119.931679"}, {"name": "Siller_Bros_Tower", "id": 1724, "lat": "39.423019", "lon": "-121.197906"}, {"name": "Lakeview_Big_Bear_1", "id": 2069, "lat": "34.267384", "lon": "-116.880150"}, {"name": "Saddleback_Lookout_1", "id": 1714, "lat": "39.636600", "lon": "-120.864403"}, {"name": "Kenwood_Ranch_Upper_2", "id": 2050, "lat": "38.447208", "lon": "-122.554993"}, {"name": "South_Forks_Lookout_2", "id": 2408, "lat": "40.651585", "lon": "-122.526321"}, {"name": "Refugio_2", "id": 2313, "lat": "34.538754", "lon": "-120.072250"}, {"name": "LACFD_Camp_Nine_Loop_2", "id": 2057, "lat": "34.353664", "lon": "-118.416656"}, {"name": "Rosamond_1", "id": 2330, "lat": "34.880596", "lon": "-118.162430"}, {"name": "Moraga_Fay_Hill", "id": 2533, "lat": "37.860100", "lon": "-122.117332"}, {"name": "San_Clemente_South", "id": 2347, "lat": "33.431427", "lon": "-117.597389"}, {"name": "Grizzly_Peak_Overlook_1", "id": 2001, "lat": "37.873692", "lon": "-122.219879"}, {"name": "Thumb_Mtn_2", "id": 2452, "lat": "35.274307", "lon": "-118.236443"}, {"name": "Pilot_Hill_El_Dorado_2", "id": 2254, "lat": "38.818134", "lon": "-121.029884"}, {"name": "Lake_Perris_North", "id": 2067, "lat": "33.861668", "lon": "-117.204185"}, {"name": "Mt_Abel_2", "id": 2143, "lat": "34.829086", "lon": "-119.203979"}, {"name": "Geyser_Peak", "id": 1984, "lat": "38.764606", "lon": "-122.845123"}, {"name": "California_Valley_1", "id": 1870, "lat": "35.270920", "lon": "-119.989380"}, {"name": "Keig_Yankee_Point", "id": 2043, "lat": "36.489666", "lon": "-121.920502"}, {"name": "Oak_Ridge_1", "id": 2213, "lat": "38.733700", "lon": "-123.289803"}, {"name": "Pena_Adobe", "id": 2247, "lat": "38.319149", "lon": "-121.992760"}, {"name": "Deer_Creek_HWY_2", "id": 1759, "lat": "39.751225", "lon": "-121.759033"}, {"name": "Wolf_Mtn_2", "id": 1747, "lat": "39.133999", "lon": "-121.099701"}, {"name": "West_Peak_2", "id": 2491, "lat": "40.537701", "lon": "-122.505096"}, {"name": "Sutter_Buttes", "id": 1738, "lat": "39.205502", "lon": "-121.820503"}, {"name": "Kennedy_Mine", "id": 2048, "lat": "38.367500", "lon": "-120.780602"}, {"name": "Sleepy_Mtn", "id": 2395, "lat": "38.231949", "lon": "-122.497498"}, {"name": "Butler_Hill_South_Mtn_2", "id": 1869, "lat": "34.289078", "lon": "-119.112152"}, {"name": "Big_Black_Mtn", "id": 1827, "lat": "33.159920", "lon": "-116.808075"}, {"name": "Carol_Drive_Santa_Clara_2", "id": 1882, "lat": "37.287498", "lon": "-121.865799"}, {"name": "Oven_Lid_1", "id": 2525, "lat": "40.030502", "lon": "-122.793419"}, {"name": "North_Mokelumne", "id": 2209, "lat": "38.459393", "lon": "-120.276169"}, {"name": "Bald_Mtn_El_Dorado_1", "id": 1802, "lat": "38.903000", "lon": "-120.704002"}, {"name": "Escabroso_2", "id": 1962, "lat": "35.468498", "lon": "-120.730492"}, {"name": "Bald_Jesse_1", "id": 1800, "lat": "40.537842", "lon": "-123.875832"}, {"name": "Buena_Vista_Kern_2", "id": 1866, "lat": "35.206783", "lon": "-119.485222"}, {"name": "Mt_Bullion_1", "id": 2151, "lat": "37.533134", "lon": "-120.028008"}, {"name": "Gypsum_Canyon_1", "id": 2003, "lat": "33.893887", "lon": "-117.745430"}, {"name": "Lower_Lake_2", "id": 1749, "lat": "38.851170", "lon": "-122.593666"}, {"name": "East_Los_Molinos", "id": 1673, "lat": "40.055408", "lon": "-121.985687"}, {"name": "Bald_Jesse_2", "id": 1801, "lat": "40.537842", "lon": "-123.875832"}, {"name": "Black_Mtn_SCC", "id": 1835, "lat": "37.318600", "lon": "-122.147301"}, {"name": "Somerset", "id": 2403, "lat": "38.663342", "lon": "-120.704811"}, {"name": "Saint_John_Mtn_2", "id": 1732, "lat": "39.433952", "lon": "-122.693298"}, {"name": "Ducket_Peak_2", "id": 1777, "lat": "40.537281", "lon": "-122.640427"}, {"name": "Pilot_Hill_El_Dorado_1", "id": 2253, "lat": "38.818134", "lon": "-121.029884"}, {"name": "Whitney_Portal_2", "id": 2501, "lat": "36.590385", "lon": "-118.143112"}, {"name": "Likely_Mtn_2", "id": 2648, "lat": "41.155165", "lon": "-120.563569"}, {"name": "Petaluma_1", "id": 1754, "lat": "38.222797", "lon": "-122.653656"}, {"name": "Deer_Horn_1", "id": 1935, "lat": "41.177078", "lon": "-123.672035"}, {"name": "Buck_Rock_1", "id": 1860, "lat": "36.737301", "lon": "-118.860603"}, {"name": "Johnstone_Peak_1", "id": 2041, "lat": "34.154583", "lon": "-117.801003"}, {"name": "Elk_Creek_2", "id": 1646, "lat": "39.515667", "lon": "-122.562767"}, {"name": "Heaps_Peak_1", "id": 2011, "lat": "34.234825", "lon": "-117.140511"}, {"name": "King_George_Ridge_1", "id": 2051, "lat": "35.873501", "lon": "-118.745003"}, {"name": "Snow_Summit_South", "id": 2401, "lat": "34.219898", "lon": "-116.892899"}, {"name": "Mt_Jackson", "id": 2172, "lat": "38.539669", "lon": "-122.961319"}, {"name": "McKittrick_Summit_North", "id": 2108, "lat": "35.291412", "lon": "-119.763405"}, {"name": "Hayfork_Divide_2", "id": 2010, "lat": "40.629166", "lon": "-123.084549"}, {"name": "San_Luis_Obispo_ECC", "id": 2351, "lat": "35.301998", "lon": "-120.678802"}, {"name": "Ballard_Ridge_1", "id": 2644, "lat": "41.363000", "lon": "-120.839000"}, {"name": "Logtown", "id": 2080, "lat": "38.631390", "lon": "-120.858452"}, {"name": "Walker_Ridge_1", "id": 1743, "lat": "39.037495", "lon": "-122.495171"}, {"name": "Cartago_1", "id": 1883, "lat": "36.322380", "lon": "-118.026093"}, {"name": "Bald_Mtn_Butte_2", "id": 1611, "lat": "39.952499", "lon": "-121.482498"}, {"name": "Ridgewood_Grade_2", "id": 2699, "lat": "39.326580", "lon": "-123.270950"}, {"name": "San_Juan_Hills_North", "id": 2349, "lat": "33.502922", "lon": "-117.603149"}, {"name": "Ben_Bolte_2", "id": 1824, "lat": "38.588039", "lon": "-121.025063"}, {"name": "Sierra_Peak_1", "id": 2381, "lat": "33.849899", "lon": "-117.654099"}, {"name": "CSM_Ca\u00f1ada_Bldg_9", "id": 1917, "lat": "37.448399", "lon": "-122.265198"}, {"name": "Barr_Ranch_2", "id": 1773, "lat": "39.281597", "lon": "-121.167557"}, {"name": "Mtn_High_North_1", "id": 2202, "lat": "34.382801", "lon": "-117.684097"}, {"name": "Lafayette_Dunsyre_Dr", "id": 2062, "lat": "37.900501", "lon": "-122.086403"}, {"name": "Merced_2", "id": 2116, "lat": "37.426250", "lon": "-120.441307"}, {"name": "Shasta_Ski_Park", "id": 1682, "lat": "41.331360", "lon": "-122.200493"}, {"name": "Mt_Rodoni_2", "id": 2189, "lat": "37.218102", "lon": "-122.032600"}, {"name": "Boucher_Hill_East", "id": 1845, "lat": "33.334606", "lon": "-116.919800"}, {"name": "Mail_Ridge_Satterlee_1", "id": 2098, "lat": "40.202602", "lon": "-123.708305"}, {"name": "Garces_HWY_1", "id": 1981, "lat": "35.761665", "lon": "-119.052780"}, {"name": "Temescal_Trailhead_2", "id": 2447, "lat": "34.077404", "lon": "-118.546570"}, {"name": "Meadowbrook_2", "id": 2112, "lat": "38.859600", "lon": "-120.821899"}, {"name": "Prefumo_Canyon_2", "id": 2276, "lat": "35.252960", "lon": "-120.762711"}, {"name": "Box_Springs_Mtn_2", "id": 1848, "lat": "33.959900", "lon": "-117.279602"}, {"name": "Ctry_Club_Hts_Carmel_1", "id": 1918, "lat": "36.506275", "lon": "-121.718887"}, {"name": "Weir_Canyon_Eastridge_1", "id": 2484, "lat": "33.834969", "lon": "-117.742546"}, {"name": "Flournoy", "id": 1742, "lat": "39.944614", "lon": "-122.340073"}, {"name": "Reche_Peak_1", "id": 2298, "lat": "33.989338", "lon": "-117.247681"}, {"name": "SignalPeak_2", "id": 2388, "lat": "33.605186", "lon": "-117.811020"}, {"name": "Arcadia_1", "id": 1788, "lat": "34.179638", "lon": "-118.025688"}, {"name": "Wilshire_2", "id": 2515, "lat": "34.016869", "lon": "-118.500473"}, {"name": "Soda_Ridge_1", "id": 1729, "lat": "41.224876", "lon": "-122.242111"}, {"name": "Mtn_High_West_1", "id": 2204, "lat": "34.367401", "lon": "-117.691704"}, {"name": "Stanford_Dish", "id": 2414, "lat": "37.411789", "lon": "-122.179680"}, {"name": "Black_Oak", "id": 1837, "lat": "39.686493", "lon": "-123.579521"}, {"name": "Sage_Peak_2", "id": 2342, "lat": "34.244583", "lon": "-118.673889"}, {"name": "Mission_Peak_1", "id": 2127, "lat": "37.475399", "lon": "-121.860901"}, {"name": "Pepperwood_Preserve_East", "id": 2248, "lat": "38.582798", "lon": "-122.703773"}, {"name": "Antelope_Mtn_Yreka_1", "id": 1606, "lat": "41.610207", "lon": "-122.624847"}, {"name": "Barnabe_Peak_West", "id": 1810, "lat": "38.026779", "lon": "-122.716362"}, {"name": "Henrietta_Peak_2", "id": 2016, "lat": "36.903400", "lon": "-121.230103"}, {"name": "Weed_1", "id": 1603, "lat": "41.435280", "lon": "-122.397469"}, {"name": "Holly_Sugar_1", "id": 1664, "lat": "39.737679", "lon": "-122.008545"}, {"name": "Baldwin_Hills_2", "id": 1806, "lat": "34.005314", "lon": "-118.363129"}, {"name": "Ladera_Ridge_2", "id": 2061, "lat": "34.475616", "lon": "-119.219376"}, {"name": "Oregon_Mtn_2", "id": 2228, "lat": "40.718582", "lon": "-122.980698"}, {"name": "Redwood_Valley_2", "id": 2311, "lat": "39.309242", "lon": "-123.180298"}, {"name": "La_Porte", "id": 1672, "lat": "39.404285", "lon": "-121.386330"}, {"name": "Omo_Ranch_Rd_1", "id": 2223, "lat": "38.580551", "lon": "-120.614960"}, {"name": "Ball_Rock", "id": 2527, "lat": "39.967667", "lon": "-122.741249"}, {"name": "Radio_Hill_2", "id": 1705, "lat": "39.940388", "lon": "-120.928932"}, {"name": "Ben_Bolte_1", "id": 1823, "lat": "38.588039", "lon": "-121.025063"}, {"name": "Idyllwild_1", "id": 2035, "lat": "33.725632", "lon": "-116.750679"}, {"name": "Quail_Canyon_1", "id": 2282, "lat": "34.171871", "lon": "-117.255600"}, {"name": "Outingdale", "id": 2233, "lat": "38.630070", "lon": "-120.711929"}, {"name": "Hammond_Ranch_1", "id": 1660, "lat": "41.373402", "lon": "-122.451447"}, {"name": "Panoche_Mtn_1", "id": 2675, "lat": "36.725592", "lon": "-120.764717"}, {"name": "Herd_Peak_1", "id": 1661, "lat": "41.625534", "lon": "-122.248268"}, {"name": "Whitaker_Middle_Peak_2", "id": 2605, "lat": "34.569444", "lon": "-118.740117"}, {"name": "High_Divide_1", "id": 2020, "lat": "41.926983", "lon": "-124.062958"}, {"name": "Rincon_del_Diablo_N", "id": 2318, "lat": "33.093830", "lon": "-117.121078"}, {"name": "Hollywood_2", "id": 2028, "lat": "34.108727", "lon": "-118.380646"}, {"name": "Templeton_1", "id": 2448, "lat": "35.566898", "lon": "-120.819298"}, {"name": "Meadow_Lakes", "id": 2110, "lat": "37.069950", "lon": "-119.427887"}, {"name": "Sonoma_Mtn", "id": 2404, "lat": "38.348202", "lon": "-122.578102"}, {"name": "Deer_Horn_2", "id": 1936, "lat": "41.177078", "lon": "-123.672035"}, {"name": "Hopland_2", "id": 1753, "lat": "38.997311", "lon": "-123.083336"}, {"name": "Edith_Hill_1", "id": 1953, "lat": "37.747513", "lon": "-120.120667"}, {"name": "Santiago_Peak_CalOES_S", "id": 2370, "lat": "33.711151", "lon": "-117.534103"}, {"name": "Deer_Creek_HWY_1", "id": 1758, "lat": "39.751225", "lon": "-121.759033"}, {"name": "Heavenly_Ski_Area_1", "id": 2013, "lat": "38.927341", "lon": "-119.931679"}, {"name": "Girard_Ridge_2", "id": 1655, "lat": "41.126801", "lon": "-122.291748"}, {"name": "Mebane_1", "id": 2113, "lat": "35.516098", "lon": "-118.717606"}, {"name": "Lime_Saddle", "id": 1775, "lat": "39.687099", "lon": "-121.561897"}, {"name": "Philo_2", "id": 1768, "lat": "39.063690", "lon": "-123.418922"}, {"name": "Hotchkiss_Hill_1", "id": 1666, "lat": "39.006500", "lon": "-120.977654"}, {"name": "Ten_Mile", "id": 2450, "lat": "38.898605", "lon": "-123.632881"}, {"name": "Hotchkiss_Hill_2", "id": 1667, "lat": "39.006500", "lon": "-120.977654"}, {"name": "Crimea_Fire_Red_Tower_1", "id": 1913, "lat": "34.296303", "lon": "-119.273468"}, {"name": "Greeley_Hill", "id": 1995, "lat": "37.739899", "lon": "-120.151199"}, {"name": "Longvale_1", "id": 2566, "lat": "39.550808", "lon": "-123.413203"}, {"name": "Portal_Ridge_2", "id": 2270, "lat": "34.679214", "lon": "-118.432617"}, {"name": "Tehama_Carmel_1", "id": 2443, "lat": "36.560600", "lon": "-121.835999"}, {"name": "Grass_Mtn_1", "id": 1993, "lat": "34.759689", "lon": "-120.065277"}, {"name": "Omo_Ranch_Rd_2", "id": 2224, "lat": "38.580551", "lon": "-120.614960"}, {"name": "Little_Mountain_2", "id": 2079, "lat": "34.159000", "lon": "-117.315002"}, {"name": "San_Vicente_2", "id": 2360, "lat": "34.128750", "lon": "-118.512924"}, {"name": "Prunedale_2", "id": 2280, "lat": "36.813461", "lon": "-121.679077"}, {"name": "Oakland_Coliseum", "id": 2216, "lat": "37.747162", "lon": "-122.203171"}, {"name": "Grapevine_2", "id": 1992, "lat": "34.903049", "lon": "-118.904259"}, {"name": "Rancho_Carrillo_1", "id": 2290, "lat": "33.559502", "lon": "-117.463699"}, {"name": "Upper_Ojai_2", "id": 2475, "lat": "34.423580", "lon": "-119.155655"}, {"name": "Mt_Abel_1", "id": 2142, "lat": "34.829086", "lon": "-119.203979"}, {"name": "Limekiln_Canyon", "id": 2077, "lat": "37.202499", "lon": "-121.954880"}, {"name": "Los_Alamos_1", "id": 2678, "lat": "34.772411", "lon": "-120.327901"}, {"name": "Lower_Lake_1", "id": 1748, "lat": "38.851170", "lon": "-122.593666"}, {"name": "Antelope_Mtn_Susanville", "id": 1605, "lat": "40.453098", "lon": "-120.571503"}, {"name": "Castanea_Ridge", "id": 1885, "lat": "37.298557", "lon": "-122.174019"}, {"name": "Red_Mtn_SD_North", "id": 2308, "lat": "33.400791", "lon": "-117.190468"}, {"name": "Oregon_House", "id": 1691, "lat": "39.332741", "lon": "-121.234253"}, {"name": "Cartago_2", "id": 1884, "lat": "36.322380", "lon": "-118.026093"}, {"name": "Lower_Mt_Veeder_2", "id": 2091, "lat": "38.338100", "lon": "-122.362503"}, {"name": "Cactus_Peak_2", "id": 2607, "lat": "33.338957", "lon": "-118.450303"}, {"name": "Miami_Peak_2", "id": 2122, "lat": "37.419273", "lon": "-119.745659"}, {"name": "Rocky_Hill_2", "id": 2326, "lat": "36.285992", "lon": "-119.088348"}, {"name": "Cordelia_Green_Valley", "id": 2532, "lat": "38.247379", "lon": "-122.203705"}, {"name": "Mt_Jackson_West", "id": 1681, "lat": "38.539921", "lon": "-122.961891"}, {"name": "Bealville_1", "id": 1812, "lat": "35.256153", "lon": "-118.624619"}, {"name": "Onyx_Peak_South_1", "id": 2689, "lat": "34.191277", "lon": "-116.709415"}, {"name": "Merrell_Rd", "id": 2117, "lat": "37.827000", "lon": "-120.229599"}, {"name": "Presson_Hill_2", "id": 2278, "lat": "37.166565", "lon": "-121.926453"}, {"name": "Pecwan_1", "id": 2243, "lat": "41.320999", "lon": "-123.883797"}, {"name": "Santiago_Peak_1", "id": 2367, "lat": "33.711536", "lon": "-117.533112"}, {"name": "Decker_2", "id": 1934, "lat": "34.110126", "lon": "-118.851891"}, {"name": "Millers_Ranch_1", "id": 2123, "lat": "36.251499", "lon": "-121.452301"}, {"name": "Cambria_2", "id": 2657, "lat": "35.527944", "lon": "-121.060225"}, {"name": "Hawkeye_Ranch", "id": 2007, "lat": "39.086243", "lon": "-123.447830"}, {"name": "Shandon_2", "id": 2377, "lat": "35.652050", "lon": "-120.351349"}, {"name": "Babbitt_Peak", "id": 1799, "lat": "39.601974", "lon": "-120.105804"}, {"name": "Barry_Ridge_Kneeland", "id": 1811, "lat": "40.726902", "lon": "-123.973946"}, {"name": "Sunset_Hill_1", "id": 1736, "lat": "39.523724", "lon": "-121.300308"}, {"name": "North_Portola", "id": 1690, "lat": "39.829193", "lon": "-120.470985"}, {"name": "Ducket_Peak_1", "id": 1639, "lat": "40.537281", "lon": "-122.640427"}, {"name": "Zinfandel_2", "id": 2523, "lat": "38.468670", "lon": "-122.477623"}, {"name": "Bird_Springs_1", "id": 1831, "lat": "35.536343", "lon": "-118.140518"}, {"name": "Fort_Jones_2", "id": 1651, "lat": "41.595783", "lon": "-122.877403"}, {"name": "Birch_Hill_Palomar_1", "id": 1830, "lat": "33.307892", "lon": "-116.855042"}, {"name": "Tecuya_Mtn_1", "id": 2439, "lat": "34.833595", "lon": "-118.996475"}, {"name": "Jones_Ridge", "id": 1671, "lat": "39.220203", "lon": "-120.937103"}, {"name": "Lower_Meyers_Grade_1", "id": 2088, "lat": "38.483757", "lon": "-123.170189"}, {"name": "Buena_Vista_Amador_2", "id": 1864, "lat": "38.260700", "lon": "-120.893333"}, {"name": "Lexington_Hill_2", "id": 1675, "lat": "39.678699", "lon": "-121.009399"}, {"name": "Lakeview_Big_Bear_2", "id": 2070, "lat": "34.267384", "lon": "-116.880150"}, {"name": "Los_Alamos_2", "id": 2677, "lat": "34.772411", "lon": "-120.327901"}, {"name": "Argonaut", "id": 1790, "lat": "38.351768", "lon": "-120.792557"}, {"name": "Muir_Beach_Overlook", "id": 2206, "lat": "37.863300", "lon": "-122.585503"}, {"name": "Willow_Creek", "id": 2513, "lat": "38.442345", "lon": "-120.927048"}, {"name": "Breckenridge_Peak_1", "id": 1853, "lat": "35.452900", "lon": "-118.591400"}, {"name": "Hayfork_Divide_1", "id": 2009, "lat": "40.629166", "lon": "-123.084549"}, {"name": "Rocky_Ridge_1", "id": 2329, "lat": "37.815887", "lon": "-122.062332"}, {"name": "Fish_Rock_2", "id": 1974, "lat": "38.821884", "lon": "-123.583534"}, {"name": "Lohman_Ridge_Pike", "id": 2081, "lat": "39.424278", "lon": "-121.037498"}, {"name": "Schill_Hill_1", "id": 2373, "lat": "35.635582", "lon": "-118.806786"}, {"name": "Topanga_Canyon_1", "id": 2455, "lat": "34.123795", "lon": "-118.578758"}, {"name": "Jackson_Butte_2", "id": 2038, "lat": "38.340000", "lon": "-120.721298"}, {"name": "McKenzie_Ridge", "id": 2107, "lat": "36.764359", "lon": "-119.097000"}, {"name": "Bonny_Doon", "id": 1844, "lat": "37.130001", "lon": "-122.165298"}, {"name": "Lake_Perris_South", "id": 2068, "lat": "33.861668", "lon": "-117.204185"}, {"name": "Mt_Adelaide_2", "id": 2145, "lat": "35.429768", "lon": "-118.749718"}, {"name": "Oregon_Peak_1", "id": 1692, "lat": "39.389599", "lon": "-121.177597"}, {"name": "Cerro_Gordo_2", "id": 1890, "lat": "36.533073", "lon": "-117.793594"}, {"name": "Figueroa_2", "id": 1972, "lat": "34.728291", "lon": "-119.992004"}, {"name": "Anaheim_Deer_Canyon_1", "id": 1786, "lat": "33.857800", "lon": "-117.806702"}, {"name": "Briones_Tabletop", "id": 1855, "lat": "37.932339", "lon": "-122.123383"}, {"name": "Homewood_Ski_Area_1", "id": 2029, "lat": "39.082802", "lon": "-120.174530"}, {"name": "Pine_Mtn", "id": 2255, "lat": "38.843620", "lon": "-122.946960"}, {"name": "Mt_Vision", "id": 2194, "lat": "38.079868", "lon": "-122.866943"}, {"name": "Briones_Rancho_de_la_Rosa", "id": 1858, "lat": "37.962700", "lon": "-122.166603"}, {"name": "Mt_Diablo_North", "id": 2157, "lat": "37.892639", "lon": "-121.899223"}, {"name": "Monument_Peak", "id": 2137, "lat": "32.892246", "lon": "-116.420868"}, {"name": "West_Gonzales_2", "id": 2489, "lat": "36.455002", "lon": "-121.482002"}, {"name": "Shirley_Peak_2", "id": 2379, "lat": "35.705730", "lon": "-118.559547"}, {"name": "Oroville_Ca_St_Parks", "id": 2229, "lat": "39.535000", "lon": "-121.466599"}, {"name": "Cummings_Skyway", "id": 1923, "lat": "38.028957", "lon": "-122.197517"}, {"name": "Bear_Mtn_North", "id": 1816, "lat": "34.213001", "lon": "-116.866302"}, {"name": "Tecuya_Mtn_2", "id": 2440, "lat": "34.833595", "lon": "-118.996475"}, {"name": "Sierra_Pelona_1", "id": 2383, "lat": "34.547199", "lon": "-118.213120"}, {"name": "Sycamore_Flat_2", "id": 2432, "lat": "36.296001", "lon": "-121.347000"}, {"name": "Mt_San_Miguel_South", "id": 2191, "lat": "32.696804", "lon": "-116.936363"}, {"name": "Upper_Meyers_Grade_2", "id": 2473, "lat": "38.525173", "lon": "-123.202797"}, {"name": "Sierra_Buttes_1", "id": 1720, "lat": "39.593498", "lon": "-120.647202"}, {"name": "Mt_Vaca_8", "id": 1685, "lat": "38.415298", "lon": "-122.111198"}, {"name": "Wild_Frontier_2", "id": 2504, "lat": "41.830299", "lon": "-123.876801"}, {"name": "Westridge_2", "id": 2494, "lat": "34.086666", "lon": "-118.510620"}, {"name": "Panic_Point", "id": 2546, "lat": "39.654162", "lon": "-123.216728"}, {"name": "King_George_Ridge_2", "id": 2052, "lat": "35.873501", "lon": "-118.745003"}, {"name": "Buck_Rock_2", "id": 1861, "lat": "36.737301", "lon": "-118.860603"}, {"name": "Buena_Vista_Amador_1", "id": 1863, "lat": "38.260700", "lon": "-120.893333"}, {"name": "Cobb_Mtn_1", "id": 1633, "lat": "38.807224", "lon": "-122.740631"}, {"name": "Crestline_Ridge_1", "id": 1911, "lat": "34.236500", "lon": "-117.314201"}, {"name": "Magic_Mountain_2", "id": 2097, "lat": "34.386234", "lon": "-118.329315"}, {"name": "Nostalgia_Bonsall_2", "id": 2212, "lat": "33.305794", "lon": "-117.153915"}, {"name": "McCabe_Ridge_2", "id": 2106, "lat": "40.694916", "lon": "-122.655365"}, {"name": "Dyer_Mtn_1", "id": 1642, "lat": "40.238998", "lon": "-121.032700"}, {"name": "Refugio_1", "id": 2312, "lat": "34.538754", "lon": "-120.072250"}, {"name": "Purissima", "id": 2281, "lat": "37.423740", "lon": "-122.405449"}, {"name": "St_Helena_South_Napa", "id": 2413, "lat": "38.656342", "lon": "-122.614441"}, {"name": "Saddle_Timber_2", "id": 2338, "lat": "38.846127", "lon": "-120.584953"}, {"name": "Queen_Bee", "id": 2286, "lat": "38.194599", "lon": "-119.005402"}, {"name": "Sage_Brush_Flats", "id": 2339, "lat": "33.536579", "lon": "-116.592972"}, {"name": "McKittrick_Summit_South", "id": 2109, "lat": "35.291412", "lon": "-119.763405"}, {"name": "Mt_Lukens_2", "id": 2182, "lat": "34.268692", "lon": "-118.236908"}, {"name": "Mt_Wilson_West", "id": 2196, "lat": "34.224510", "lon": "-118.058670"}, {"name": "Cuesta_Peak", "id": 1920, "lat": "35.360500", "lon": "-120.655800"}, {"name": "Weir_Canyon_Serrano_2", "id": 2487, "lat": "33.844055", "lon": "-117.738045"}, {"name": "Philo_1", "id": 1767, "lat": "39.063690", "lon": "-123.418922"}, {"name": "Howell_Mtn_2", "id": 1680, "lat": "39.067150", "lon": "-120.972473"}, {"name": "Doe_Mill_Road", "id": 1638, "lat": "39.815426", "lon": "-121.668144"}, {"name": "Hanging_Tree_1", "id": 2005, "lat": "35.573570", "lon": "-120.666908"}, {"name": "Cactus_Peak_1", "id": 2606, "lat": "33.338957", "lon": "-118.450303"}, {"name": "Laughlin_Ridge_1", "id": 1756, "lat": "39.322952", "lon": "-123.273148"}, {"name": "Bald_Mtn_El_Dorado_2", "id": 1803, "lat": "38.903000", "lon": "-120.704002"}, {"name": "Baldwin_Hills_1", "id": 1805, "lat": "34.005314", "lon": "-118.363129"}, {"name": "Jarbo_Gap", "id": 1602, "lat": "39.767700", "lon": "-121.481796"}, {"name": "Red_Mtn_SD_South", "id": 2309, "lat": "33.400791", "lon": "-117.190468"}, {"name": "Mt_Bullion_2", "id": 2152, "lat": "37.533134", "lon": "-120.028008"}, {"name": "Oregon_Mtn_1", "id": 2227, "lat": "40.718582", "lon": "-122.980698"}, {"name": "Mtn_High_North_2", "id": 2203, "lat": "34.382801", "lon": "-117.684097"}, {"name": "Eagles_Nest", "id": 1951, "lat": "40.371498", "lon": "-122.142403"}, {"name": "SE_Pope_Valley", "id": 2604, "lat": "38.551700", "lon": "-122.326500"}, {"name": "Boucher_Hill_West", "id": 1846, "lat": "33.334606", "lon": "-116.919800"}, {"name": "Keller_Peak_2", "id": 2045, "lat": "34.196815", "lon": "-117.049248"}, {"name": "Herd_Peak_2", "id": 2528, "lat": "41.625534", "lon": "-122.248268"}, {"name": "High_Divide_2", "id": 2021, "lat": "41.926983", "lon": "-124.062958"}, {"name": "Otay_Mtn_2", "id": 2232, "lat": "32.594803", "lon": "-116.844704"}, {"name": "Felicita_San_Diego_2", "id": 1970, "lat": "33.083218", "lon": "-117.094604"}, {"name": "Grizzly_Peak_Lookout_2", "id": 2665, "lat": "41.144399", "lon": "-121.978699"}, {"name": "Cummings_Mtn_2", "id": 1922, "lat": "35.041489", "lon": "-118.570206"}, {"name": "Sierra_Pelona_2", "id": 2384, "lat": "34.547199", "lon": "-118.213120"}, {"name": "Santa_Ynez_Peak_West_2", "id": 2366, "lat": "34.526943", "lon": "-119.979263"}, {"name": "Mesa_Grande_North", "id": 2118, "lat": "33.188869", "lon": "-116.760651"}, {"name": "Gibraltar_1", "id": 1985, "lat": "34.465286", "lon": "-119.678314"}, {"name": "Rattlesnake_Peak_2", "id": 1772, "lat": "39.469601", "lon": "-121.408897"}, {"name": "Mt_Laguna_Obsv_South", "id": 2175, "lat": "32.839649", "lon": "-116.426521"}, {"name": "Rocky_Hill_1", "id": 2325, "lat": "36.285992", "lon": "-119.088348"}, {"name": "Delilah_Lookout_1", "id": 1937, "lat": "36.804108", "lon": "-119.117516"}, {"name": "Valley_Springs", "id": 2476, "lat": "38.111500", "lon": "-120.817703"}, {"name": "Cerro_Gordo_1", "id": 1889, "lat": "36.533073", "lon": "-117.793594"}, {"name": "Blue_Mtn_Calaveras_2", "id": 2680, "lat": "38.342100", "lon": "-120.364900"}, {"name": "Topanga_Canyon_2", "id": 2456, "lat": "34.123795", "lon": "-118.578758"}, {"name": "Halls_Ridge_2", "id": 2687, "lat": "36.457556", "lon": "-121.825806"}, {"name": "Aliso_Laguna_2", "id": 1783, "lat": "33.577641", "lon": "-117.755257"}, {"name": "Mt_Woodson", "id": 2197, "lat": "33.008732", "lon": "-116.970917"}, {"name": "Baldwin_Lake_1", "id": 1856, "lat": "34.277901", "lon": "-116.793053"}, {"name": "Grass_Mtn_2", "id": 1994, "lat": "34.759689", "lon": "-120.065277"}, {"name": "Millers_Ranch_2", "id": 2124, "lat": "36.251499", "lon": "-121.452301"}, {"name": "Felicita_San_Diego_1", "id": 1969, "lat": "33.083218", "lon": "-117.094604"}, {"name": "San_Sevaine_Lookout_2", "id": 2356, "lat": "34.213501", "lon": "-117.500900"}, {"name": "Verdugo_Peak_2", "id": 2478, "lat": "34.214943", "lon": "-118.275917"}, {"name": "St_Helena_North", "id": 2412, "lat": "38.669102", "lon": "-122.633400"}, {"name": "Coll_of_San_Mateo_Bldg10", "id": 1899, "lat": "37.536407", "lon": "-122.335266"}, {"name": "Red_Mtn_Ventura_2", "id": 2303, "lat": "34.348488", "lon": "-119.333313"}, {"name": "Round_Top", "id": 2333, "lat": "37.850880", "lon": "-122.192429"}, {"name": "Dry_Creek_1", "id": 1943, "lat": "38.365799", "lon": "-122.389198"}, {"name": "Lebec_Oaks_2", "id": 2075, "lat": "34.835892", "lon": "-118.898293"}, {"name": "Penn_Valley", "id": 1625, "lat": "39.193726", "lon": "-121.223358"}, {"name": "Chinese_Wall", "id": 1627, "lat": "39.446747", "lon": "-121.414452"}, {"name": "Sawmill_Kern_2", "id": 2372, "lat": "34.839722", "lon": "-119.140663"}, {"name": "Lebec_Oaks_1", "id": 2074, "lat": "34.835892", "lon": "-118.898293"}, {"name": "Rattlesnake_Peak_1", "id": 1706, "lat": "39.469601", "lon": "-121.408897"}, {"name": "Rainbow_Lake", "id": 2287, "lat": "40.497200", "lon": "-122.689697"}, {"name": "Vollmer_Tower_Top", "id": 2483, "lat": "37.883511", "lon": "-122.221878"}, {"name": "Platte_Mtn_1", "id": 1699, "lat": "39.935921", "lon": "-121.647499"}, {"name": "LACFD_Camp_Nine_Loop_1", "id": 2056, "lat": "34.353664", "lon": "-118.416656"}, {"name": "Big_Valley", "id": 2589, "lat": "41.072064", "lon": "-121.223003"}, {"name": "Kelseyville_1", "id": 2046, "lat": "38.973583", "lon": "-122.770859"}, {"name": "Owens_Mtn", "id": 2234, "lat": "36.929989", "lon": "-119.641579"}, {"name": "Wolf_Mtn_1", "id": 1746, "lat": "39.133999", "lon": "-121.099701"}, {"name": "San_Pedro", "id": 2354, "lat": "37.990200", "lon": "-122.500099"}, {"name": "Avalon_Catalina_2", "id": 1798, "lat": "33.339062", "lon": "-118.318413"}, {"name": "Holiday_Lake_2", "id": 2026, "lat": "37.151501", "lon": "-121.609901"}, {"name": "Blue_Mtn_Kern_2", "id": 1839, "lat": "35.759773", "lon": "-118.759621"}, {"name": "Soda_Ridge_2", "id": 1730, "lat": "41.224876", "lon": "-122.242111"}, {"name": "Armstrong_Lookout_2", "id": 1792, "lat": "38.542347", "lon": "-120.384285"}, {"name": "Paynes_Peak", "id": 1695, "lat": "39.313400", "lon": "-121.380676"}, {"name": "Quail_Ridge_2", "id": 1703, "lat": "39.952881", "lon": "-120.942520"}, {"name": "Fairview_Alameda_1", "id": 1963, "lat": "37.662838", "lon": "-122.025764"}, {"name": "El_Rancho_2", "id": 1958, "lat": "35.164127", "lon": "-118.580574"}, {"name": "Homewood_Ski_Area_2", "id": 2030, "lat": "39.082802", "lon": "-120.174530"}, {"name": "Barham_South", "id": 1808, "lat": "38.508801", "lon": "-122.663300"}, {"name": "Rockpile", "id": 2321, "lat": "38.718899", "lon": "-123.053902"}, {"name": "Cisco_Buttes_2", "id": 1629, "lat": "39.305775", "lon": "-120.562813"}, {"name": "Mt_Hamilton_SCC_3", "id": 2167, "lat": "37.341499", "lon": "-121.642403"}, {"name": "Smith_Ridge", "id": 2398, "lat": "38.517395", "lon": "-123.172325"}, {"name": "Grizzly_Peak_Overlook_2", "id": 2002, "lat": "37.873692", "lon": "-122.219879"}, {"name": "Buckingham_Peak_1", "id": 1688, "lat": "38.989601", "lon": "-122.769203"}, {"name": "Brain_Ridge_2", "id": 1852, "lat": "38.539921", "lon": "-123.167030"}, {"name": "Pitts", "id": 2694, "lat": "35.678220", "lon": "-120.775860"}, {"name": "Gypsum_Canyon_2", "id": 2004, "lat": "33.893887", "lon": "-117.745430"}, {"name": "Eden_Valley_2", "id": 2692, "lat": "39.515939", "lon": "-123.096271"}, {"name": "Red_Mtn_Glenn_1", "id": 2306, "lat": "39.742500", "lon": "-122.609604"}, {"name": "Merced_1", "id": 2115, "lat": "37.426250", "lon": "-120.441307"}, {"name": "Sky_Oaks_South", "id": 2393, "lat": "33.378658", "lon": "-116.622292"}, {"name": "South_Oroville", "id": 1694, "lat": "39.462749", "lon": "-121.582420"}, {"name": "Blue_Mtn_Calaveras_1", "id": 2679, "lat": "38.342100", "lon": "-120.364900"}, {"name": "Dangermond_1", "id": 1927, "lat": "34.499401", "lon": "-120.454399"}, {"name": "Siri", "id": 2391, "lat": "38.488602", "lon": "-123.034897"}, {"name": "Weed_2", "id": 1604, "lat": "41.435280", "lon": "-122.397469"}, {"name": "Mt_Laguna_Obsv_North", "id": 2174, "lat": "32.839649", "lon": "-116.426521"}, {"name": "Sloat_Mtn", "id": 1728, "lat": "39.837601", "lon": "-120.710999"}, {"name": "Mt_Rincon_2", "id": 2187, "lat": "34.372833", "lon": "-119.420776"}, {"name": "LACFD_Helibase_69_Bravo_E", "id": 2058, "lat": "34.074585", "lon": "-118.627884"}, {"name": "Chilcoot", "id": 1626, "lat": "39.774620", "lon": "-120.108444"}, {"name": "Cedar_Ridge", "id": 1888, "lat": "38.052299", "lon": "-120.278999"}, {"name": "Likely_Mtn_1", "id": 2647, "lat": "41.155165", "lon": "-120.563569"}, {"name": "White_Star_South", "id": 2499, "lat": "32.647236", "lon": "-116.318008"}, {"name": "Palo_Escrito_2", "id": 2238, "lat": "36.406387", "lon": "-121.491386"}, {"name": "Ladera_Ridge_1", "id": 2060, "lat": "34.475616", "lon": "-119.219376"}, {"name": "Talega_South_upper_1", "id": 2437, "lat": "33.519154", "lon": "-117.480949"}, {"name": "Cleland_Mtn_1", "id": 1631, "lat": "39.115799", "lon": "-123.233101"}, {"name": "Hobron", "id": 2024, "lat": "37.793900", "lon": "-120.113297"}, {"name": "Portnoff_Hill_1", "id": 2271, "lat": "35.646034", "lon": "-120.738747"}, {"name": "Moccasin_Peak_2", "id": 2130, "lat": "37.805199", "lon": "-120.328102"}, {"name": "Quail_Canyon_2", "id": 2283, "lat": "34.171871", "lon": "-117.255600"}, {"name": "Foothills_Park", "id": 1978, "lat": "37.366447", "lon": "-122.173805"}, {"name": "Twin_Sisters_East_2", "id": 2465, "lat": "38.303711", "lon": "-122.168060"}, {"name": "Williams_Hill_2", "id": 2510, "lat": "35.951000", "lon": "-121.001999"}, {"name": "Sites_2", "id": 1726, "lat": "39.287891", "lon": "-122.334740"}, {"name": "Meadow_Valley", "id": 1676, "lat": "39.921818", "lon": "-120.989243"}, {"name": "White_Star_North", "id": 2498, "lat": "32.647236", "lon": "-116.318008"}, {"name": "Sugarloaf_Shasta_1", "id": 1734, "lat": "40.914471", "lon": "-122.444504"}, {"name": "Santa_Ynez_Peak_West_1", "id": 2365, "lat": "34.526943", "lon": "-119.979263"}, {"name": "Nostalgia_Bonsall_1", "id": 2211, "lat": "33.305794", "lon": "-117.153915"}, {"name": "Patton_Hill_1", "id": 2241, "lat": "40.256809", "lon": "-123.655800"}, {"name": "Sloan_1", "id": 2396, "lat": "35.614849", "lon": "-120.710426"}, {"name": "Fay_Ranch_Rd_2", "id": 1968, "lat": "35.667496", "lon": "-118.290550"}, {"name": "Ridgewood_Grade_1", "id": 2317, "lat": "39.326580", "lon": "-123.270950"}, {"name": "Red_Corral_Rd_2", "id": 2301, "lat": "38.412952", "lon": "-120.595154"}, {"name": "Two_Harbors_Catalina_2", "id": 2469, "lat": "33.441299", "lon": "-118.486115"}, {"name": "Shoeinhorse_Mtn_1", "id": 2703, "lat": "41.068342", "lon": "-122.073138"}, {"name": "San_Rafael_Hill", "id": 2667, "lat": "37.981200", "lon": "-122.529378"}, {"name": "Lamont_1", "id": 2071, "lat": "35.245777", "lon": "-118.915817"}, {"name": "San_Luis_Reservoir_2", "id": 2353, "lat": "37.019024", "lon": "-121.086288"}, {"name": "Oak_Canyon_2", "id": 2585, "lat": "33.838280", "lon": "-117.752052"}, {"name": "Ranchita_1", "id": 2288, "lat": "33.217541", "lon": "-116.502357"}, {"name": "Girard_Ridge_1", "id": 1654, "lat": "41.126801", "lon": "-122.291748"}, {"name": "Bear_Peak_South_1", "id": 1819, "lat": "34.209702", "lon": "-116.850601"}, {"name": "Vacaville", "id": 2612, "lat": "38.360895", "lon": "-122.073562"}, {"name": "Chabot", "id": 2578, "lat": "37.820419", "lon": "-122.185417"}, {"name": "Red_Mtn_Del_Norte_1", "id": 2304, "lat": "41.524025", "lon": "-123.908569"}, {"name": "Devils_Garden_1", "id": 1939, "lat": "41.499073", "lon": "-120.622818"}, {"name": "Kenwood_Ranch_Upper_1", "id": 2049, "lat": "38.447208", "lon": "-122.554993"}, {"name": "Chino_Hills_2", "id": 1895, "lat": "33.913837", "lon": "-117.738297"}, {"name": "Hi_Mountain_1", "id": 2017, "lat": "35.259979", "lon": "-120.425179"}, {"name": "Eden_Valley_1", "id": 1952, "lat": "39.515939", "lon": "-123.096271"}, {"name": "Zinfandel_1", "id": 2522, "lat": "38.468670", "lon": "-122.477623"}, {"name": "Garces_HWY_2", "id": 1982, "lat": "35.761665", "lon": "-119.052780"}, {"name": "Camarillo_Ranch_2", "id": 1873, "lat": "34.218571", "lon": "-119.019424"}, {"name": "Volcan_Tract_III_South", "id": 2481, "lat": "33.138256", "lon": "-116.617058"}, {"name": "Jasper_Ridge_Bio_Presv", "id": 2039, "lat": "37.405281", "lon": "-122.239601"}, {"name": "Dulcinea", "id": 1640, "lat": "39.677761", "lon": "-121.637161"}, {"name": "Williams_Hill_1", "id": 2509, "lat": "35.951000", "lon": "-121.001999"}, {"name": "Cuyamaca_Peak_North", "id": 1925, "lat": "32.946434", "lon": "-116.606575"}, {"name": "Cuyamaca_Peak_South", "id": 1926, "lat": "32.946434", "lon": "-116.606575"}, {"name": "Rasnow_Peak_2", "id": 2297, "lat": "34.165298", "lon": "-118.908997"}, {"name": "Snow_Peak_2", "id": 2400, "lat": "34.037701", "lon": "-116.814400"}, {"name": "Alabama_Hills_1", "id": 1779, "lat": "36.565666", "lon": "-118.089951"}, {"name": "Lamont_2", "id": 2072, "lat": "35.245777", "lon": "-118.915817"}, {"name": "Temescal_Trailhead_1", "id": 2446, "lat": "34.077404", "lon": "-118.546570"}, {"name": "Bald_Mtn_Guinda_2", "id": 1659, "lat": "38.788620", "lon": "-122.121986"}, {"name": "Walker_Ridge_2", "id": 1744, "lat": "39.037495", "lon": "-122.495171"}, {"name": "Lake_Berryessa_East", "id": 2066, "lat": "38.663799", "lon": "-122.189201"}, {"name": "Verdugo_Peak_1", "id": 2477, "lat": "34.214943", "lon": "-118.275917"}, {"name": "Mt_Bradley_1", "id": 1686, "lat": "41.221874", "lon": "-122.308662"}, {"name": "Twin_Sisters_East_1", "id": 2464, "lat": "38.303711", "lon": "-122.168060"}, {"name": "Coronado_Hills_S", "id": 2581, "lat": "33.110634", "lon": "-117.153061"}, {"name": "Tahoe_Donner", "id": 2435, "lat": "39.345982", "lon": "-120.281319"}, {"name": "Sites_1", "id": 1725, "lat": "39.287891", "lon": "-122.334740"}, {"name": "Bloomer_Lookout_1", "id": 1618, "lat": "39.651001", "lon": "-121.463402"}, {"name": "Saddle_Peak_2", "id": 2336, "lat": "34.075802", "lon": "-118.659203"}, {"name": "Morgan_Summit", "id": 2684, "lat": "40.355162", "lon": "-121.545655"}, {"name": "Portal_Ridge_1", "id": 2269, "lat": "34.679214", "lon": "-118.432617"}, {"name": "Castro_Peak_1", "id": 1886, "lat": "34.085800", "lon": "-118.785698"}, {"name": "Coon_Hollow", "id": 1905, "lat": "38.723431", "lon": "-120.808357"}, {"name": "Camarillo_Ranch_1", "id": 1872, "lat": "34.218571", "lon": "-119.019424"}, {"name": "El_Rancho_1", "id": 1957, "lat": "35.164127", "lon": "-118.580574"}, {"name": "Flatiron_West", "id": 1647, "lat": "39.736698", "lon": "-121.693100"}, {"name": "Weston", "id": 2654, "lat": "37.090163", "lon": "-122.021152"}, {"name": "Sage_Peak_1", "id": 2341, "lat": "34.244583", "lon": "-118.673889"}, {"name": "Castro_Peak_2", "id": 1887, "lat": "34.085800", "lon": "-118.785698"}, {"name": "Sutro_Tower_1", "id": 2428, "lat": "37.755306", "lon": "-122.452751"}, {"name": "Loma_Prieta", "id": 2082, "lat": "37.110420", "lon": "-121.843697"}, {"name": "Sulphur_Mtn_Willet_1", "id": 2424, "lat": "34.412621", "lon": "-119.187973"}, {"name": "Petaluma_2", "id": 1755, "lat": "38.222797", "lon": "-122.653656"}, {"name": "Chews_Ridge_Observatory", "id": 1893, "lat": "36.306000", "lon": "-121.566803"}, {"name": "Prefumo_Canyon_1", "id": 2275, "lat": "35.252960", "lon": "-120.762711"}, {"name": "Box_Springs_Mtn_East_1", "id": 1849, "lat": "33.966240", "lon": "-117.288879"}, {"name": "Tehachapi_Obsv_1", "id": 2441, "lat": "35.045982", "lon": "-118.461143"}, {"name": "Elsinore_Peak_1", "id": 1959, "lat": "33.601898", "lon": "-117.343903"}, {"name": "Dyer_Mtn_2", "id": 1641, "lat": "40.238998", "lon": "-121.032700"}, {"name": "West_Peak_1", "id": 2490, "lat": "40.537701", "lon": "-122.505096"}, {"name": "Mtn_High_East_2", "id": 2201, "lat": "34.358002", "lon": "-117.682297"}, {"name": "Mt_Zion_1", "id": 2198, "lat": "38.389950", "lon": "-120.652336"}, {"name": "Pinole_Ridge", "id": 2258, "lat": "37.993248", "lon": "-122.269684"}, {"name": "Oakland_Clorox", "id": 2215, "lat": "37.803799", "lon": "-122.272301"}, {"name": "Mt_Emma_2", "id": 2162, "lat": "34.482483", "lon": "-118.080727"}, {"name": "Mt_Aukum_1", "id": 2148, "lat": "38.573868", "lon": "-120.726982"}, {"name": "Slate_Mtn", "id": 2662, "lat": "40.832292", "lon": "-120.857826"}, {"name": "Mohrhardt_Ridge_2", "id": 2132, "lat": "38.577747", "lon": "-123.159645"}, {"name": "San_Luis_Reservoir_1", "id": 2352, "lat": "37.019024", "lon": "-121.086288"}, {"name": "Duncan_Ranch_2", "id": 1948, "lat": "35.777916", "lon": "-120.179970"}, {"name": "Minnesota_Hill_Fallbrook_1", "id": 2125, "lat": "33.383991", "lon": "-117.245743"}, {"name": "Falcons_View", "id": 1965, "lat": "40.569698", "lon": "-122.501099"}, {"name": "San_Benito_2", "id": 2345, "lat": "36.627056", "lon": "-121.201447"}, {"name": "Sierra_Vista_2", "id": 2386, "lat": "38.229866", "lon": "-120.614334"}, {"name": "Elk_Creek_1", "id": 1645, "lat": "39.515667", "lon": "-122.562767"}, {"name": "Parkfield_1", "id": 2239, "lat": "35.927635", "lon": "-120.380814"}, {"name": "Parkfield_2", "id": 2240, "lat": "35.927635", "lon": "-120.380814"}, {"name": "Sierra_Vista", "id": 2385, "lat": "38.229866", "lon": "-120.614334"}, {"name": "Delilah_Lookout_2", "id": 1938, "lat": "36.804108", "lon": "-119.117516"}, {"name": "Halls_Ridge_1", "id": 2686, "lat": "36.457556", "lon": "-121.825806"}, {"name": "Pleasants_North_1", "id": 2261, "lat": "33.799000", "lon": "-117.623398"}, {"name": "Mt_Emma_1", "id": 2161, "lat": "34.482483", "lon": "-118.080727"}, {"name": "Bunch_Grass_Lookout_1", "id": 1622, "lat": "40.874767", "lon": "-121.772789"}, {"name": "Fay_Ranch_Rd_1", "id": 1967, "lat": "35.667496", "lon": "-118.290550"}, {"name": "DL_Bliss_State_Park", "id": 1941, "lat": "38.973900", "lon": "-120.099899"}, {"name": "Mebane_2", "id": 2114, "lat": "35.516098", "lon": "-118.717606"}, {"name": "LACFD_Helibase_69_Bravo_W", "id": 2059, "lat": "34.074585", "lon": "-118.627884"}, {"name": "Sloan_2", "id": 2397, "lat": "35.614849", "lon": "-120.710426"}, {"name": "Santiago_Peak_2", "id": 2368, "lat": "33.711536", "lon": "-117.533112"}, {"name": "Richardson_Springs_Rd", "id": 1708, "lat": "39.833370", "lon": "-121.782318"}, {"name": "Bald_Mtn_Napa", "id": 1804, "lat": "38.426300", "lon": "-122.490303"}, {"name": "Dew_Drop_2", "id": 2697, "lat": "38.516044", "lon": "-120.480750"}, {"name": "Palo_Escrito_1", "id": 2237, "lat": "36.406387", "lon": "-121.491386"}, {"name": "Penman_Peak_2", "id": 1697, "lat": "39.800545", "lon": "-120.618103"}, {"name": "Inks_Ridge", "id": 1669, "lat": "40.374496", "lon": "-122.121361"}, {"name": "La_Panza", "id": 2055, "lat": "35.224899", "lon": "-120.133698"}, {"name": "Mt_Helen_1", "id": 2170, "lat": "36.543568", "lon": "-121.118851"}, {"name": "Star_Mtn_1", "id": 2415, "lat": "34.118900", "lon": "-118.392502"}, {"name": "Weir_Canyon_Serrano_1", "id": 2486, "lat": "33.844055", "lon": "-117.738045"}, {"name": "Gorman_2", "id": 1990, "lat": "34.803822", "lon": "-118.815796"}, {"name": "Bear_Peak_South_2", "id": 1820, "lat": "34.209702", "lon": "-116.850601"}, {"name": "Deadmans_Ridge_East", "id": 1929, "lat": "34.232967", "lon": "-116.792107"}, {"name": "Carol_Drive_Santa_Clara_1", "id": 1881, "lat": "37.287498", "lon": "-121.865799"}, {"name": "Bear_Mtn_Shasta_2", "id": 1778, "lat": "40.719906", "lon": "-122.268158"}, {"name": "Lexington_Hill_1", "id": 1674, "lat": "39.678699", "lon": "-121.009399"}, {"name": "Rocky_Point_2", "id": 2328, "lat": "35.686901", "lon": "-118.420700"}, {"name": "Vollmer_Peak", "id": 2482, "lat": "37.883511", "lon": "-122.221878"}, {"name": "Buena_Vista_Kern_1", "id": 1865, "lat": "35.206783", "lon": "-119.485222"}, {"name": "Sawmill_Lookout_1", "id": 1717, "lat": "39.811901", "lon": "-121.558800"}, {"name": "Ridgewood", "id": 2316, "lat": "38.731312", "lon": "-120.986687"}, {"name": "Toro_Peak_1", "id": 2459, "lat": "33.523510", "lon": "-116.425690"}, {"name": "Mt_Oso", "id": 2184, "lat": "37.506920", "lon": "-121.373489"}, {"name": "Spinks_Canyon", "id": 2410, "lat": "34.154476", "lon": "-117.957710"}, {"name": "Dew_Drop_1", "id": 2698, "lat": "38.516044", "lon": "-120.480750"}, {"name": "Portnoff_Hill_2", "id": 2272, "lat": "35.646034", "lon": "-120.738747"}, {"name": "Mt_Hamilton_SCC_2", "id": 2166, "lat": "37.341301", "lon": "-121.642899"}, {"name": "Tuscan_Butte_2", "id": 2463, "lat": "40.258400", "lon": "-122.090103"}, {"name": "Dream_Inn", "id": 2608, "lat": "36.961332", "lon": "-122.025227"}, {"name": "Suisun_Valley", "id": 2423, "lat": "38.263302", "lon": "-122.092102"}, {"name": "Starletta", "id": 2417, "lat": "37.879601", "lon": "-120.586899"}, {"name": "Bear_Mtn_Fresno_2", "id": 1815, "lat": "36.746307", "lon": "-119.280029"}, {"name": "Dangermond_2", "id": 1928, "lat": "34.499401", "lon": "-120.454399"}, {"name": "Oat_Mtn_North_1", "id": 2217, "lat": "34.324558", "lon": "-118.584251"}, {"name": "Indian_Ridge_1", "id": 1668, "lat": "40.060318", "lon": "-120.916878"}, {"name": "Greenwood_Rd_North", "id": 1999, "lat": "39.124298", "lon": "-123.598297"}, {"name": "Capell_Valley_1", "id": 1877, "lat": "38.488029", "lon": "-122.224709"}, {"name": "Indian_Ridge_2", "id": 2531, "lat": "40.060317", "lon": "-120.916875"}, {"name": "Barham_North", "id": 1807, "lat": "38.508801", "lon": "-122.663300"}, {"name": "Hamilton_Mtn_2", "id": 1678, "lat": "40.337200", "lon": "-120.870697"}, {"name": "Fallen_Leaf_Lake", "id": 1966, "lat": "38.879200", "lon": "-120.065697"}, {"name": "San_Benito_1", "id": 2344, "lat": "36.627056", "lon": "-121.201447"}, {"name": "Pelato_Peak_West", "id": 2246, "lat": "34.919968", "lon": "-119.405243"}, {"name": "Lone_Pine_1", "id": 2083, "lat": "36.606548", "lon": "-118.058128"}, {"name": "Boonville_Mtn_1", "id": 1621, "lat": "38.977020", "lon": "-123.357391"}, {"name": "Whitney_Portal_1", "id": 2500, "lat": "36.590385", "lon": "-118.143112"}, {"name": "Keller_Peak_1", "id": 2044, "lat": "34.196815", "lon": "-117.049248"}, {"name": "Mt_Chual", "id": 2154, "lat": "37.119350", "lon": "-121.834267"}, {"name": "Laytonville", "id": 1774, "lat": "39.693996", "lon": "-123.579651"}, {"name": "San_Vicente_1", "id": 2359, "lat": "34.128750", "lon": "-118.512924"}, {"name": "Signal_Peak_NVCO_2", "id": 1723, "lat": "39.338840", "lon": "-120.535828"}, {"name": "Decker_1", "id": 1933, "lat": "34.110126", "lon": "-118.851891"}, {"name": "Carbon_Canyon_2", "id": 1880, "lat": "33.942440", "lon": "-117.797775"}, {"name": "Strawberry_Peak_Arrowhead_1", "id": 2420, "lat": "34.232227", "lon": "-117.235001"}, {"name": "Two_Harbors_Catalina_1", "id": 2468, "lat": "33.441299", "lon": "-118.486115"}, {"name": "Thunder_Valley_Casino_West", "id": 1741, "lat": "38.840179", "lon": "-121.315048"}, {"name": "Iron_Mountain_1", "id": 2706, "lat": "38.992979", "lon": "-121.064152"}, {"name": "North_Placerville", "id": 2210, "lat": "38.754608", "lon": "-120.802528"}, {"name": "Butler_Hill_South_Mtn_1", "id": 1868, "lat": "34.289078", "lon": "-119.112152"}, {"name": "Mt_Rincon_1", "id": 2186, "lat": "34.372833", "lon": "-119.420776"}, {"name": "Ranchita_2", "id": 2289, "lat": "33.217541", "lon": "-116.502357"}, {"name": "Round_Mtn_Fresno", "id": 2332, "lat": "36.818382", "lon": "-119.510727"}, {"name": "Garden_Bar", "id": 1652, "lat": "38.963799", "lon": "-121.239632"}, {"name": "Box_Springs_Mtn_East_2", "id": 1850, "lat": "33.966240", "lon": "-117.288879"}, {"name": "Pratt_Mtn_2", "id": 2274, "lat": "40.119675", "lon": "-123.693047"}, {"name": "Mt_Sanel_1", "id": 1715, "lat": "38.948601", "lon": "-123.217400"}, {"name": "Box_Springs_Mtn_1", "id": 1847, "lat": "33.959900", "lon": "-117.279602"}, {"name": "Bald_Mtn_Butte_1", "id": 1609, "lat": "39.952499", "lon": "-121.482498"}, {"name": "Twin_Sisters_North_1", "id": 2466, "lat": "38.303200", "lon": "-122.168503"}, {"name": "Cobb_Mtn_2", "id": 1634, "lat": "38.807224", "lon": "-122.740631"}, {"name": "HWY_101_Blueberry_2", "id": 2034, "lat": "34.557392", "lon": "-120.186157"}, {"name": "Mohrhardt_Ridge_1", "id": 2131, "lat": "38.577747", "lon": "-123.159645"}, {"name": "Grizzly_Peak_Lookout_1", "id": 2666, "lat": "41.144399", "lon": "-121.978699"}, {"name": "Pinyon_Peak_1", "id": 2259, "lat": "36.489601", "lon": "-121.786598"}, {"name": "San_Timoteo_1", "id": 2357, "lat": "34.030373", "lon": "-117.220894"}, {"name": "Geyser_Peak_2", "id": 1653, "lat": "38.764595", "lon": "-122.845253"}, {"name": "Pacheco_Peak_2", "id": 2236, "lat": "37.007889", "lon": "-121.287460"}, {"name": "Beckwourth_Peak_1", "id": 1608, "lat": "39.768902", "lon": "-120.436600"}, {"name": "Red_Mtn_Ventura_1", "id": 2302, "lat": "34.348488", "lon": "-119.333313"}, {"name": "Mt_Lincoln", "id": 2180, "lat": "39.287720", "lon": "-120.328888"}, {"name": "Idyllwild_2", "id": 2036, "lat": "33.725632", "lon": "-116.750679"}, {"name": "Lula_Vineyard", "id": 2092, "lat": "39.124763", "lon": "-123.516769"}, {"name": "Pratt_Mtn_1", "id": 2273, "lat": "40.119675", "lon": "-123.693047"}, {"name": "Quartzite_Mtn_1", "id": 2284, "lat": "34.611366", "lon": "-117.290405"}, {"name": "Berryessa_Peak", "id": 1826, "lat": "38.662998", "lon": "-122.189301"}, {"name": "Bald_Mtn_La_Porte", "id": 1612, "lat": "39.696880", "lon": "-120.980133"}, {"name": "Oak_Canyon_1", "id": 2584, "lat": "33.838280", "lon": "-117.752052"}, {"name": "Sonora_Peak_West", "id": 2406, "lat": "37.979900", "lon": "-120.402901"}, {"name": "Mt_Harvard_1", "id": 2168, "lat": "34.212944", "lon": "-118.062164"}, {"name": "Atlas_Peak", "id": 1795, "lat": "38.452831", "lon": "-122.266777"}, {"name": "Deadwood_Mtn_1", "id": 1931, "lat": "37.314125", "lon": "-119.686455"}, {"name": "Concow_Mtn", "id": 1007, "lat": "39.771301", "lon": "-121.538696"}, {"name": "Lane_Hill_Pescadero", "id": 2073, "lat": "37.273308", "lon": "-122.341454"}, {"name": "Rocky_Butte_Trail_2", "id": 2324, "lat": "35.670040", "lon": "-121.045853"}, {"name": "Minnesota_Hill_Fallbrook_2", "id": 2126, "lat": "33.383991", "lon": "-117.245743"}, {"name": "Birch_Hill_Palomar_2", "id": 2681, "lat": "33.307892", "lon": "-116.855042"}, {"name": "Tunitas", "id": 2461, "lat": "37.386688", "lon": "-122.341438"}, {"name": "Sutro_Tower_2", "id": 2429, "lat": "37.755306", "lon": "-122.452751"}, {"name": "Table_1", "id": 2433, "lat": "34.383202", "lon": "-117.663902"}, {"name": "Lyons_Peak_1", "id": 2093, "lat": "32.701534", "lon": "-116.764572"}, {"name": "Round_Mtn_Paskenta_1", "id": 1709, "lat": "39.917141", "lon": "-122.670723"}, {"name": "Oregon_Peak_2", "id": 1693, "lat": "39.389599", "lon": "-121.177597"}, {"name": "Marzano_Peak_2", "id": 2102, "lat": "37.205269", "lon": "-118.107498"}, {"name": "Wheeler_Canyon_2", "id": 2496, "lat": "34.387039", "lon": "-119.145325"}, {"name": "Mt_Diablo", "id": 2156, "lat": "37.881290", "lon": "-121.915482"}, {"name": "Reche_Peak_2", "id": 2299, "lat": "33.989338", "lon": "-117.247681"}, {"name": "Topatopa_Foothills_2", "id": 2458, "lat": "34.468410", "lon": "-119.256630"}, {"name": "Big_John", "id": 2565, "lat": "39.856453", "lon": "-123.349011"}, {"name": "Sugarloaf_Shasta_2", "id": 1735, "lat": "40.914471", "lon": "-122.444504"}, {"name": "Blue_Ridge_2", "id": 1841, "lat": "36.286610", "lon": "-118.839729"}, {"name": "Rincon_del_Diablo_S", "id": 2319, "lat": "33.093830", "lon": "-117.121078"}, {"name": "Bald_Mtn_Guinda_1", "id": 1658, "lat": "38.788620", "lon": "-122.121986"}, {"name": "Gold_Country", "id": 1987, "lat": "38.335999", "lon": "-120.904701"}, {"name": "Crest_2", "id": 1910, "lat": "32.804600", "lon": "-116.876999"}, {"name": "Flatiron_East", "id": 1648, "lat": "39.736698", "lon": "-121.692902"}, {"name": "Capell_Valley_2", "id": 1878, "lat": "38.488029", "lon": "-122.224709"}, {"name": "High_Plateau", "id": 1662, "lat": "39.277214", "lon": "-121.289658"}, {"name": "Todd_Eymann_Rd_1", "id": 2701, "lat": "36.708753", "lon": "-119.029459"}, {"name": "Santa_Rita_Quarry_1", "id": 2362, "lat": "35.509750", "lon": "-120.811821"}, {"name": "Rutherford", "id": 2334, "lat": "38.460030", "lon": "-122.462395"}, {"name": "Lower_Meyers_Grade_2", "id": 2089, "lat": "38.483757", "lon": "-123.170189"}, {"name": "Rancho_La_Habra_1", "id": 2292, "lat": "33.973301", "lon": "-117.942902"}, {"name": "Round_Mtn_Shasta", "id": 1610, "lat": "40.805061", "lon": "-121.958099"}, {"name": "Colvin_Mtn_2", "id": 1904, "lat": "36.450699", "lon": "-119.151199"}, {"name": "Hamilton_Mtn_1", "id": 1677, "lat": "40.337200", "lon": "-120.870697"}, {"name": "Iron_Mountain_8_Thermal", "id": 2704, "lat": "38.992979", "lon": "-121.064152"}, {"name": "Pine_Creek", "id": 1698, "lat": "39.899376", "lon": "-121.840096"}, {"name": "Coll_of_San_Mateo_Bldg36", "id": 1900, "lat": "37.537663", "lon": "-122.337219"}, {"name": "Mt_Allison", "id": 2147, "lat": "37.499161", "lon": "-121.871536"}, {"name": "Ridgeline_2", "id": 2315, "lat": "34.254116", "lon": "-119.037323"}, {"name": "Pepperwood_West_High_Hill", "id": 2249, "lat": "38.578201", "lon": "-122.705902"}, {"name": "Alabama_Hills_2", "id": 1780, "lat": "36.565666", "lon": "-118.089951"}, {"name": "Cleland_Mtn_2", "id": 1632, "lat": "39.115799", "lon": "-123.233101"}, {"name": "Breckenridge_Peak_2", "id": 1854, "lat": "35.452900", "lon": "-118.591400"}, {"name": "Mulholland_Ridge", "id": 2207, "lat": "37.858479", "lon": "-122.142792"}, {"name": "Inskip_Hill_1", "id": 2690, "lat": "40.346111", "lon": "-121.945000"}, {"name": "Onyx_Peak_South_2", "id": 2688, "lat": "34.191277", "lon": "-116.709415"}, {"name": "Longvale_2", "id": 2567, "lat": "39.550808", "lon": "-123.413203"}, {"name": "Laughlin_Ridge_2", "id": 1757, "lat": "39.322952", "lon": "-123.273148"}, {"name": "Grizzly_Peak_1", "id": 1656, "lat": "38.970692", "lon": "-123.279488"}, {"name": "Baldwin_Lake_2", "id": 1857, "lat": "34.277901", "lon": "-116.793053"}, {"name": "Otay_Mtn_1", "id": 2231, "lat": "32.594803", "lon": "-116.844704"}, {"name": "Huntington_Lake_2", "id": 2032, "lat": "37.218224", "lon": "-119.238586"}, {"name": "Lafayette_Lucas_Dr", "id": 2063, "lat": "37.867790", "lon": "-122.083237"}, {"name": "Mt_Adelaide_North", "id": 2146, "lat": "35.438000", "lon": "-118.741302"}, {"name": "Oak_Ridge_2", "id": 2214, "lat": "38.733700", "lon": "-123.289803"}, {"name": "San_Antonio", "id": 2343, "lat": "34.841499", "lon": "-120.498901"}, {"name": "SRVFD_Station_31", "id": 2411, "lat": "37.809509", "lon": "-121.992630"}, {"name": "Round_Mtn_Paskenta_2", "id": 1710, "lat": "39.917141", "lon": "-122.670723"}, {"name": "Hopland_1", "id": 1752, "lat": "38.997311", "lon": "-123.083336"}, {"name": "Snow_Peak_1", "id": 2399, "lat": "34.037701", "lon": "-116.814400"}, {"name": "Deadmans_Ridge_West", "id": 1930, "lat": "34.232967", "lon": "-116.792107"}, {"name": "Burstein", "id": 2670, "lat": "39.269135", "lon": "-123.705080"}, {"name": "Carbon_Canyon_1", "id": 1879, "lat": "33.942440", "lon": "-117.797775"}, {"name": "Garin_Ridge_1", "id": 1983, "lat": "37.655411", "lon": "-122.002686"}, {"name": "Mt_Wilson_East", "id": 2195, "lat": "34.224510", "lon": "-118.058670"}, {"name": "Lake_Wohlford_1", "id": 2646, "lat": "33.174690", "lon": "-117.004410"}, {"name": "Ruby_Bluff_1", "id": 1711, "lat": "39.511467", "lon": "-120.844894"}, {"name": "Telegraph_Hill_2", "id": 2445, "lat": "38.030800", "lon": "-120.351799"}, {"name": "Silver_Mtn_1", "id": 2609, "lat": "37.110300", "lon": "-121.934100"}, {"name": "Fremont_Peak", "id": 1980, "lat": "36.756283", "lon": "-121.502434"}, {"name": "Table_2", "id": 2434, "lat": "34.383202", "lon": "-117.663902"}, {"name": "Sky_Oaks_North", "id": 2392, "lat": "33.378658", "lon": "-116.622292"}, {"name": "Pillar_Point", "id": 2252, "lat": "37.501495", "lon": "-122.483154"}, {"name": "Santa_Barbara_Mesa", "id": 2361, "lat": "34.405342", "lon": "-119.715607"}, {"name": "Butt_Lake", "id": 1624, "lat": "40.181244", "lon": "-121.153694"}, {"name": "Willis_Peak_1", "id": 2511, "lat": "34.302471", "lon": "-119.230728"}, {"name": "Escabroso_1", "id": 1961, "lat": "35.468498", "lon": "-120.730492"}, {"name": "Atlas_Peak_West", "id": 1796, "lat": "38.452831", "lon": "-122.266777"}, {"name": "Ridgeline_1", "id": 2314, "lat": "34.254116", "lon": "-119.037323"}, {"name": "El_Paso_1", "id": 1955, "lat": "35.477287", "lon": "-117.700447"}, {"name": "Mountain_Gate_2", "id": 2141, "lat": "34.107635", "lon": "-118.482567"}, {"name": "Hornbrook_2", "id": 1766, "lat": "41.929877", "lon": "-122.557403"}, {"name": "Los_Pinos_North", "id": 2086, "lat": "32.734673", "lon": "-116.577751"}, {"name": "Stoney_Ridge", "id": 1733, "lat": "38.919655", "lon": "-121.128784"}, {"name": "Mt_Harvard_2", "id": 2169, "lat": "34.212944", "lon": "-118.062164"}, {"name": "Mojave_Admin_2", "id": 2134, "lat": "35.046242", "lon": "-118.162468"}, {"name": "Green_Peak_North_1", "id": 1996, "lat": "34.086380", "lon": "-118.548820"}, {"name": "Maddock_Canyon", "id": 2095, "lat": "34.152058", "lon": "-117.952530"}, {"name": "Canyonback_Trail_TCM_2", "id": 1876, "lat": "34.098499", "lon": "-118.497704"}, {"name": "Milias_Ranch_2", "id": 2659, "lat": "37.048428", "lon": "-121.487860"}, {"name": "Timber_Mtn_2", "id": 2653, "lat": "41.629456", "lon": "-121.298983"}, {"name": "Black_Mtn_San_Diego", "id": 1834, "lat": "32.981506", "lon": "-117.116440"}, {"name": "SignalPeak_1", "id": 2387, "lat": "33.605186", "lon": "-117.811020"}, {"name": "Bolinas", "id": 1843, "lat": "37.935799", "lon": "-122.706497"}, {"name": "Evora_Road", "id": 2592, "lat": "38.021195", "lon": "-121.987778"}, {"name": "Coon_Hollow_2", "id": 1906, "lat": "38.723431", "lon": "-120.808357"}, {"name": "Seigler_Mtn_2", "id": 1751, "lat": "38.873997", "lon": "-122.709686"}, {"name": "Holly_Sugar_2", "id": 1665, "lat": "39.737679", "lon": "-122.008545"}, {"name": "Highline_Trail", "id": 1663, "lat": "40.708305", "lon": "-122.206474"}, {"name": "High_Point_Palomar", "id": 2022, "lat": "33.363018", "lon": "-116.836220"}, {"name": "Blue_Mtn_Kern_1", "id": 1838, "lat": "35.759773", "lon": "-118.759621"}, {"name": "Hawkins_Peak", "id": 2008, "lat": "38.738525", "lon": "-119.872368"}, {"name": "Crimea_Fire_Red_Tower_2", "id": 1914, "lat": "34.296303", "lon": "-119.273468"}, {"name": "Thumb_Mtn_1", "id": 2451, "lat": "35.274307", "lon": "-118.236443"}, {"name": "Fairview_Alameda_2", "id": 1964, "lat": "37.662838", "lon": "-122.025764"}, {"name": "San_Sevaine_Lookout_1", "id": 2355, "lat": "34.213501", "lon": "-117.500900"}, {"name": "College_Peak_1", "id": 1901, "lat": "34.017124", "lon": "-118.014748"}, {"name": "Pole_Mtn_Lookout_1", "id": 2266, "lat": "38.505402", "lon": "-123.120003"}, {"name": "Wildcat_Canyon", "id": 2507, "lat": "37.956760", "lon": "-122.316551"}, {"name": "Kingsville", "id": 2053, "lat": "38.677158", "lon": "-120.878822"}, {"name": "Montara_Mountain", "id": 2135, "lat": "37.562210", "lon": "-122.480545"}, {"name": "Sierra_Peak_2", "id": 2382, "lat": "33.849899", "lon": "-117.654099"}, {"name": "Weir_Canyon_Eastridge_2", "id": 2485, "lat": "33.834969", "lon": "-117.742546"}, {"name": "Rocky_Butte", "id": 2322, "lat": "35.674751", "lon": "-121.053490"}, {"name": "Bunker_Hill", "id": 1867, "lat": "39.049442", "lon": "-120.380447"}, {"name": "Hi_Mountain_2", "id": 2018, "lat": "35.259979", "lon": "-120.425179"}, {"name": "Aliso_Laguna_1", "id": 1782, "lat": "33.577641", "lon": "-117.755257"}, {"name": "Tobias_Peak_1", "id": 2453, "lat": "35.850105", "lon": "-118.572571"}, {"name": "Black_Mtn_Lassen_1", "id": 2669, "lat": "40.116821", "lon": "-120.317476"}, {"name": "Mt_Lee_N", "id": 2176, "lat": "34.134628", "lon": "-118.320580"}, {"name": "Cupertino_Hills", "id": 1924, "lat": "37.291801", "lon": "-122.106003"}, {"name": "HWY_101_Blueberry_1", "id": 2033, "lat": "34.557392", "lon": "-120.186157"}, {"name": "Wheeler_Canyon_1", "id": 2495, "lat": "34.387039", "lon": "-119.145325"}, {"name": "Buckingham_Peak_2", "id": 1689, "lat": "38.989601", "lon": "-122.769203"}, {"name": "Iron_Mountain_2", "id": 2707, "lat": "38.992979", "lon": "-121.064152"}, {"name": "Topatopa_Foothills_1", "id": 2457, "lat": "34.468410", "lon": "-119.256630"}, {"name": "Armstrong_Lookout_1", "id": 1791, "lat": "38.542347", "lon": "-120.384285"}, {"name": "Matilija_2", "id": 2104, "lat": "34.483547", "lon": "-119.299683"}, {"name": "El_Paso_2", "id": 1956, "lat": "35.477287", "lon": "-117.700447"}, {"name": "Jacobs_Ladder", "id": 1670, "lat": "39.329578", "lon": "-121.328995"}, {"name": "Huntington_Lake_1", "id": 2031, "lat": "37.218224", "lon": "-119.238586"}, {"name": "Mountain_Gate_1", "id": 2140, "lat": "34.107635", "lon": "-118.482567"}, {"name": "Rancho_Carrillo_2", "id": 2291, "lat": "33.559502", "lon": "-117.463699"}, {"name": "Alpine_Meadows_CTC", "id": 1785, "lat": "39.147999", "lon": "-120.237999"}, {"name": "Pacheco_Peak_1", "id": 2235, "lat": "37.007889", "lon": "-121.287460"}, {"name": "Star_Mtn_2", "id": 2416, "lat": "34.118900", "lon": "-118.392502"}, {"name": "Saddle_Timber_1", "id": 2337, "lat": "38.846127", "lon": "-120.584953"}, {"name": "Bald_Mtn_Sequoia_2", "id": 2709, "lat": "36.019686", "lon": "-118.254018"}, {"name": "Bear_Clover_1", "id": 2711, "lat": "36.692925", "lon": "-119.090953"}, {"name": "Mt_Ararat_2", "id": 2710, "lat": "38.853045", "lon": "-120.940079"}, {"name": "Bald_Mtn_Sequoia_1", "id": 2708, "lat": "36.019686", "lon": "-118.254018"}, {"name": "Bear_Clover_2", "id": 2712, "lat": "36.692925", "lon": "-119.090953"}, {"name": "Antelope_Eagle_Lake_2", "id": 2713, "lat": "40.592490", "lon": "-120.910535"}, {"name": "Grass_Mountain_Los_Angeles_2", "id": 2716, "lat": "34.640910", "lon": "-118.414400"}, {"name": "Antelope_Eagle_Lake_1", "id": 2714, "lat": "40.592490", "lon": "-120.910535"}, {"name": "Grass_Mountain_Los_Angeles_1", "id": 2717, "lat": "34.640910", "lon": "-118.414400"}, {"name": "League_22", "id": 2715, "lat": "38.179212", "lon": "-122.764777"}, {"name": "Pine_Mountain_Los_Angeles_2", "id": 2719, "lat": "34.744667", "lon": "-118.727694"}, {"name": "Mount_McDill_2", "id": 2721, "lat": "34.566000", "lon": "-118.254944"}, {"name": "Pine_Mountain_Los_Angeles_1", "id": 2718, "lat": "34.744667", "lon": "-118.727694"}, {"name": "Mount_McDill_1", "id": 2720, "lat": "34.566000", "lon": "-118.254944"}]}